[
  {
    "Postcode": 1001,
    "Locality": "SYDNEY",
    "State": "NSW",
    "Longitude": 151.268071,
    "Latitude": -33.794883
  },
  {
    "Postcode": 1002,
    "Locality": "SYDNEY",
    "State": "NSW",
    "Longitude": 151.268071,
    "Latitude": -33.794883
  },
  {
    "Postcode": 1003,
    "Locality": "SYDNEY",
    "State": "NSW",
    "Longitude": 151.268071,
    "Latitude": -33.794883
  },
  {
    "Postcode": 1004,
    "Locality": "SYDNEY",
    "State": "NSW",
    "Longitude": 151.268071,
    "Latitude": -33.794883
  },
  {
    "Postcode": 1005,
    "Locality": "SYDNEY",
    "State": "NSW",
    "Longitude": 151.268071,
    "Latitude": -33.794883
  },
  {
    "Postcode": 1006,
    "Locality": "SYDNEY",
    "State": "NSW",
    "Longitude": 151.268071,
    "Latitude": -33.794883
  },
  {
    "Postcode": 1007,
    "Locality": "SYDNEY",
    "State": "NSW",
    "Longitude": 151.268071,
    "Latitude": -33.794883
  },
  {
    "Postcode": 1008,
    "Locality": "SYDNEY",
    "State": "NSW",
    "Longitude": 151.268071,
    "Latitude": -33.794883
  },
  {
    "Postcode": 1009,
    "Locality": "SYDNEY",
    "State": "NSW",
    "Longitude": 151.268071,
    "Latitude": -33.794883
  },
  {
    "Postcode": 1010,
    "Locality": "SYDNEY",
    "State": "NSW",
    "Longitude": 151.268071,
    "Latitude": -33.794883
  },
  {
    "Postcode": 1020,
    "Locality": "SYDNEY",
    "State": "NSW",
    "Longitude": 151.268071,
    "Latitude": -33.794883
  },
  {
    "Postcode": 1021,
    "Locality": "SYDNEY",
    "State": "NSW",
    "Longitude": 151.268071,
    "Latitude": -33.794883
  },
  {
    "Postcode": 1022,
    "Locality": "SYDNEY",
    "State": "NSW",
    "Longitude": 151.268071,
    "Latitude": -33.794883
  },
  {
    "Postcode": 1023,
    "Locality": "SYDNEY",
    "State": "NSW",
    "Longitude": 151.268071,
    "Latitude": -33.794883
  },
  {
    "Postcode": 1025,
    "Locality": "SYDNEY",
    "State": "NSW",
    "Longitude": 151.268071,
    "Latitude": -33.794883
  },
  {
    "Postcode": 1026,
    "Locality": "SYDNEY",
    "State": "NSW",
    "Longitude": 151.268071,
    "Latitude": -33.794883
  },
  {
    "Postcode": 1027,
    "Locality": "SYDNEY",
    "State": "NSW",
    "Longitude": 151.268071,
    "Latitude": -33.794883
  },
  {
    "Postcode": 1028,
    "Locality": "SYDNEY",
    "State": "NSW",
    "Longitude": 151.268071,
    "Latitude": -33.794883
  },
  {
    "Postcode": 1029,
    "Locality": "SYDNEY",
    "State": "NSW",
    "Longitude": 151.268071,
    "Latitude": -33.794883
  },
  {
    "Postcode": 1030,
    "Locality": "SYDNEY",
    "State": "NSW",
    "Longitude": 151.268071,
    "Latitude": -33.794883
  },
  {
    "Postcode": 1031,
    "Locality": "SYDNEY",
    "State": "NSW",
    "Longitude": 151.268071,
    "Latitude": -33.794883
  },
  {
    "Postcode": 1032,
    "Locality": "SYDNEY",
    "State": "NSW",
    "Longitude": 150.874182,
    "Latitude": -33.662834
  },
  {
    "Postcode": 1033,
    "Locality": "SYDNEY",
    "State": "NSW",
    "Longitude": 151.268071,
    "Latitude": -33.794883
  },
  {
    "Postcode": 1034,
    "Locality": "SYDNEY",
    "State": "NSW",
    "Longitude": 151.268071,
    "Latitude": -33.794883
  },
  {
    "Postcode": 1035,
    "Locality": "SYDNEY",
    "State": "NSW",
    "Longitude": 151.268071,
    "Latitude": -33.794883
  },
  {
    "Postcode": 1036,
    "Locality": "SYDNEY",
    "State": "NSW",
    "Longitude": 151.268071,
    "Latitude": -33.794883
  },
  {
    "Postcode": 1037,
    "Locality": "SYDNEY",
    "State": "NSW",
    "Longitude": 151.268071,
    "Latitude": -33.794883
  },
  {
    "Postcode": 1038,
    "Locality": "SYDNEY",
    "State": "NSW",
    "Longitude": 151.268071,
    "Latitude": -33.794883
  },
  {
    "Postcode": 1039,
    "Locality": "SYDNEY",
    "State": "NSW",
    "Longitude": 151.268071,
    "Latitude": -33.794883
  },
  {
    "Postcode": 1040,
    "Locality": "SYDNEY",
    "State": "NSW",
    "Longitude": 151.268071,
    "Latitude": -33.794883
  },
  {
    "Postcode": 1041,
    "Locality": "SYDNEY",
    "State": "NSW",
    "Longitude": 151.268071,
    "Latitude": -33.794883
  },
  {
    "Postcode": 1042,
    "Locality": "SYDNEY",
    "State": "NSW",
    "Longitude": 151.268071,
    "Latitude": -33.794883
  },
  {
    "Postcode": 1043,
    "Locality": "SYDNEY",
    "State": "NSW",
    "Longitude": 151.268071,
    "Latitude": -33.794883
  },
  {
    "Postcode": 1044,
    "Locality": "SYDNEY",
    "State": "NSW",
    "Longitude": 151.268071,
    "Latitude": -33.794883
  },
  {
    "Postcode": 1045,
    "Locality": "SYDNEY",
    "State": "NSW",
    "Longitude": 151.268071,
    "Latitude": -33.794883
  },
  {
    "Postcode": 1046,
    "Locality": "SYDNEY",
    "State": "NSW",
    "Longitude": 151.268071,
    "Latitude": -33.794883
  },
  {
    "Postcode": 1100,
    "Locality": "SYDNEY",
    "State": "NSW",
    "Longitude": 151.268071,
    "Latitude": -33.794883
  },
  {
    "Postcode": 1101,
    "Locality": "SYDNEY",
    "State": "NSW",
    "Longitude": 151.268071,
    "Latitude": -33.794883
  },
  {
    "Postcode": 1105,
    "Locality": "SYDNEY",
    "State": "NSW",
    "Longitude": 151.268071,
    "Latitude": -33.794883
  },
  {
    "Postcode": 1106,
    "Locality": "SYDNEY",
    "State": "NSW",
    "Longitude": 151.268071,
    "Latitude": -33.794883
  },
  {
    "Postcode": 1107,
    "Locality": "SYDNEY",
    "State": "NSW",
    "Longitude": 151.268071,
    "Latitude": -33.794883
  },
  {
    "Postcode": 1108,
    "Locality": "SYDNEY",
    "State": "NSW",
    "Longitude": 151.268071,
    "Latitude": -33.794883
  },
  {
    "Postcode": 1109,
    "Locality": "SYDNEY",
    "State": "NSW",
    "Longitude": 151.268071,
    "Latitude": -33.794883
  },
  {
    "Postcode": 1110,
    "Locality": "SYDNEY",
    "State": "NSW",
    "Longitude": 151.268071,
    "Latitude": -33.794883
  },
  {
    "Postcode": 1112,
    "Locality": "SYDNEY",
    "State": "NSW",
    "Longitude": 151.268071,
    "Latitude": -33.794883
  },
  {
    "Postcode": 1113,
    "Locality": "SYDNEY",
    "State": "NSW",
    "Longitude": 151.268071,
    "Latitude": -33.794883
  },
  {
    "Postcode": 1114,
    "Locality": "SYDNEY",
    "State": "NSW",
    "Longitude": 151.268071,
    "Latitude": -33.794883
  },
  {
    "Postcode": 1115,
    "Locality": "SYDNEY",
    "State": "NSW",
    "Longitude": 151.268071,
    "Latitude": -33.794883
  },
  {
    "Postcode": 1116,
    "Locality": "SYDNEY",
    "State": "NSW",
    "Longitude": 150.866145,
    "Latitude": -33.666729
  },
  {
    "Postcode": 1117,
    "Locality": "SYDNEY",
    "State": "NSW",
    "Longitude": 150.87022,
    "Latitude": -33.664575
  },
  {
    "Postcode": 1118,
    "Locality": "SYDNEY",
    "State": "NSW",
    "Longitude": 151.268071,
    "Latitude": -33.794883
  },
  {
    "Postcode": 1119,
    "Locality": "SYDNEY",
    "State": "NSW",
    "Longitude": 151.268071,
    "Latitude": -33.794883
  },
  {
    "Postcode": 1120,
    "Locality": "SYDNEY",
    "State": "NSW",
    "Longitude": 151.268071,
    "Latitude": -33.794883
  },
  {
    "Postcode": 1121,
    "Locality": "SYDNEY",
    "State": "NSW",
    "Longitude": 151.268071,
    "Latitude": -33.794883
  },
  {
    "Postcode": 1122,
    "Locality": "SYDNEY",
    "State": "NSW",
    "Longitude": 151.268071,
    "Latitude": -33.794883
  },
  {
    "Postcode": 1123,
    "Locality": "SYDNEY",
    "State": "NSW",
    "Longitude": 151.268071,
    "Latitude": -33.794883
  },
  {
    "Postcode": 1124,
    "Locality": "SYDNEY",
    "State": "NSW",
    "Longitude": 151.268071,
    "Latitude": -33.794883
  },
  {
    "Postcode": 1125,
    "Locality": "SYDNEY",
    "State": "NSW",
    "Longitude": 151.268071,
    "Latitude": -33.794883
  },
  {
    "Postcode": 1126,
    "Locality": "SYDNEY",
    "State": "NSW",
    "Longitude": 151.268071,
    "Latitude": -33.794883
  },
  {
    "Postcode": 1127,
    "Locality": "SYDNEY",
    "State": "NSW",
    "Longitude": 151.268071,
    "Latitude": -33.794883
  },
  {
    "Postcode": 1128,
    "Locality": "SYDNEY",
    "State": "NSW",
    "Longitude": 151.268071,
    "Latitude": -33.794883
  },
  {
    "Postcode": 1129,
    "Locality": "SYDNEY",
    "State": "NSW",
    "Longitude": 151.268071,
    "Latitude": -33.794883
  },
  {
    "Postcode": 1130,
    "Locality": "SYDNEY",
    "State": "NSW",
    "Longitude": 151.268071,
    "Latitude": -33.794883
  },
  {
    "Postcode": 1131,
    "Locality": "SYDNEY",
    "State": "NSW",
    "Longitude": 151.268071,
    "Latitude": -33.794883
  },
  {
    "Postcode": 1132,
    "Locality": "SYDNEY",
    "State": "NSW",
    "Longitude": 150.874265,
    "Latitude": -33.66279
  },
  {
    "Postcode": 1133,
    "Locality": "SYDNEY",
    "State": "NSW",
    "Longitude": 151.268071,
    "Latitude": -33.794883
  },
  {
    "Postcode": 1134,
    "Locality": "SYDNEY",
    "State": "NSW",
    "Longitude": 151.268071,
    "Latitude": -33.794883
  },
  {
    "Postcode": 1135,
    "Locality": "SYDNEY",
    "State": "NSW",
    "Longitude": 151.268071,
    "Latitude": -33.794883
  },
  {
    "Postcode": 1136,
    "Locality": "SYDNEY",
    "State": "NSW",
    "Longitude": 151.268071,
    "Latitude": -33.794883
  },
  {
    "Postcode": 1137,
    "Locality": "SYDNEY",
    "State": "NSW",
    "Longitude": 151.268071,
    "Latitude": -33.794883
  },
  {
    "Postcode": 1138,
    "Locality": "SYDNEY",
    "State": "NSW",
    "Longitude": 151.268071,
    "Latitude": -33.794883
  },
  {
    "Postcode": 1139,
    "Locality": "SYDNEY",
    "State": "NSW",
    "Longitude": 151.268071,
    "Latitude": -33.794883
  },
  {
    "Postcode": 1140,
    "Locality": "SYDNEY",
    "State": "NSW",
    "Longitude": 151.268071,
    "Latitude": -33.794883
  },
  {
    "Postcode": 1141,
    "Locality": "SYDNEY",
    "State": "NSW",
    "Longitude": 151.268071,
    "Latitude": -33.794883
  },
  {
    "Postcode": 1142,
    "Locality": "SYDNEY",
    "State": "NSW",
    "Longitude": 151.268071,
    "Latitude": -33.794883
  },
  {
    "Postcode": 1143,
    "Locality": "SYDNEY",
    "State": "NSW",
    "Longitude": 151.268071,
    "Latitude": -33.794883
  },
  {
    "Postcode": 1144,
    "Locality": "SYDNEY",
    "State": "NSW",
    "Longitude": 151.268071,
    "Latitude": -33.794883
  },
  {
    "Postcode": 1145,
    "Locality": "SYDNEY",
    "State": "NSW",
    "Longitude": 151.268071,
    "Latitude": -33.794883
  },
  {
    "Postcode": 1146,
    "Locality": "SYDNEY",
    "State": "NSW",
    "Longitude": 151.268071,
    "Latitude": -33.794883
  },
  {
    "Postcode": 1147,
    "Locality": "SYDNEY",
    "State": "NSW",
    "Longitude": 151.268071,
    "Latitude": -33.794883
  },
  {
    "Postcode": 1148,
    "Locality": "SYDNEY",
    "State": "NSW",
    "Longitude": 151.268071,
    "Latitude": -33.794883
  },
  {
    "Postcode": 1149,
    "Locality": "SYDNEY",
    "State": "NSW",
    "Longitude": 151.268071,
    "Latitude": -33.794883
  },
  {
    "Postcode": 1150,
    "Locality": "SYDNEY",
    "State": "NSW",
    "Longitude": 151.268071,
    "Latitude": -33.794883
  },
  {
    "Postcode": 1151,
    "Locality": "SYDNEY",
    "State": "NSW",
    "Longitude": 151.268071,
    "Latitude": -33.794883
  },
  {
    "Postcode": 1152,
    "Locality": "SYDNEY",
    "State": "NSW",
    "Longitude": 151.268071,
    "Latitude": -33.794883
  },
  {
    "Postcode": 1153,
    "Locality": "SYDNEY",
    "State": "NSW",
    "Longitude": 151.268071,
    "Latitude": -33.794883
  },
  {
    "Postcode": 1154,
    "Locality": "SYDNEY",
    "State": "NSW",
    "Longitude": 151.268071,
    "Latitude": -33.794883
  },
  {
    "Postcode": 1155,
    "Locality": "SYDNEY",
    "State": "NSW",
    "Longitude": 151.268071,
    "Latitude": -33.794883
  },
  {
    "Postcode": 1156,
    "Locality": "SYDNEY",
    "State": "NSW",
    "Longitude": 151.268071,
    "Latitude": -33.794883
  },
  {
    "Postcode": 1157,
    "Locality": "SYDNEY",
    "State": "NSW",
    "Longitude": 151.268071,
    "Latitude": -33.794883
  },
  {
    "Postcode": 1158,
    "Locality": "SYDNEY",
    "State": "NSW",
    "Longitude": 151.268071,
    "Latitude": -33.794883
  },
  {
    "Postcode": 1159,
    "Locality": "SYDNEY",
    "State": "NSW",
    "Longitude": 151.268071,
    "Latitude": -33.794883
  },
  {
    "Postcode": 1160,
    "Locality": "SYDNEY",
    "State": "NSW",
    "Longitude": 151.268071,
    "Latitude": -33.794883
  },
  {
    "Postcode": 1161,
    "Locality": "SYDNEY",
    "State": "NSW",
    "Longitude": 151.268071,
    "Latitude": -33.794883
  },
  {
    "Postcode": 1162,
    "Locality": "SYDNEY",
    "State": "NSW",
    "Longitude": 151.268071,
    "Latitude": -33.794883
  },
  {
    "Postcode": 1163,
    "Locality": "SYDNEY",
    "State": "NSW",
    "Longitude": 151.268071,
    "Latitude": -33.794883
  },
  {
    "Postcode": 1164,
    "Locality": "SYDNEY",
    "State": "NSW",
    "Longitude": 151.268071,
    "Latitude": -33.794883
  },
  {
    "Postcode": 1165,
    "Locality": "SYDNEY",
    "State": "NSW",
    "Longitude": 151.268071,
    "Latitude": -33.794883
  },
  {
    "Postcode": 1166,
    "Locality": "SYDNEY",
    "State": "NSW",
    "Longitude": 151.268071,
    "Latitude": -33.794883
  },
  {
    "Postcode": 1167,
    "Locality": "SYDNEY",
    "State": "NSW",
    "Longitude": 151.268071,
    "Latitude": -33.794883
  },
  {
    "Postcode": 1168,
    "Locality": "SYDNEY",
    "State": "NSW",
    "Longitude": 151.268071,
    "Latitude": -33.794883
  },
  {
    "Postcode": 1169,
    "Locality": "SYDNEY",
    "State": "NSW",
    "Longitude": 151.268071,
    "Latitude": -33.794883
  },
  {
    "Postcode": 1170,
    "Locality": "SYDNEY",
    "State": "NSW",
    "Longitude": 151.268071,
    "Latitude": -33.794883
  },
  {
    "Postcode": 1171,
    "Locality": "SYDNEY",
    "State": "NSW",
    "Longitude": 151.268071,
    "Latitude": -33.794883
  },
  {
    "Postcode": 1172,
    "Locality": "SYDNEY",
    "State": "NSW",
    "Longitude": 151.268071,
    "Latitude": -33.794883
  },
  {
    "Postcode": 1173,
    "Locality": "SYDNEY",
    "State": "NSW",
    "Longitude": 151.268071,
    "Latitude": -33.794883
  },
  {
    "Postcode": 1174,
    "Locality": "SYDNEY",
    "State": "NSW",
    "Longitude": 151.268071,
    "Latitude": -33.794883
  },
  {
    "Postcode": 1175,
    "Locality": "SYDNEY",
    "State": "NSW",
    "Longitude": 151.268071,
    "Latitude": -33.794883
  },
  {
    "Postcode": 1176,
    "Locality": "SYDNEY",
    "State": "NSW",
    "Longitude": 151.268071,
    "Latitude": -33.794883
  },
  {
    "Postcode": 1177,
    "Locality": "SYDNEY",
    "State": "NSW",
    "Longitude": 151.268071,
    "Latitude": -33.794883
  },
  {
    "Postcode": 1178,
    "Locality": "SYDNEY",
    "State": "NSW",
    "Longitude": 151.268071,
    "Latitude": -33.794883
  },
  {
    "Postcode": 1179,
    "Locality": "SYDNEY",
    "State": "NSW",
    "Longitude": 151.268071,
    "Latitude": -33.794883
  },
  {
    "Postcode": 1180,
    "Locality": "SYDNEY",
    "State": "NSW",
    "Longitude": 151.268071,
    "Latitude": -33.794883
  },
  {
    "Postcode": 1181,
    "Locality": "SYDNEY",
    "State": "NSW",
    "Longitude": 151.268071,
    "Latitude": -33.794883
  },
  {
    "Postcode": 1182,
    "Locality": "SYDNEY",
    "State": "NSW",
    "Longitude": 151.268071,
    "Latitude": -33.794883
  },
  {
    "Postcode": 1183,
    "Locality": "SYDNEY",
    "State": "NSW",
    "Longitude": 151.268071,
    "Latitude": -33.794883
  },
  {
    "Postcode": 1184,
    "Locality": "SYDNEY",
    "State": "NSW",
    "Longitude": 151.268071,
    "Latitude": -33.794883
  },
  {
    "Postcode": 1185,
    "Locality": "SYDNEY",
    "State": "NSW",
    "Longitude": 151.268071,
    "Latitude": -33.794883
  },
  {
    "Postcode": 1186,
    "Locality": "SYDNEY",
    "State": "NSW",
    "Longitude": 151.268071,
    "Latitude": -33.794883
  },
  {
    "Postcode": 1187,
    "Locality": "SYDNEY",
    "State": "NSW",
    "Longitude": 151.268071,
    "Latitude": -33.794883
  },
  {
    "Postcode": 1188,
    "Locality": "SYDNEY",
    "State": "NSW",
    "Longitude": 151.268071,
    "Latitude": -33.794883
  },
  {
    "Postcode": 1189,
    "Locality": "SYDNEY",
    "State": "NSW",
    "Longitude": 151.268071,
    "Latitude": -33.794883
  },
  {
    "Postcode": 1190,
    "Locality": "SYDNEY",
    "State": "NSW",
    "Longitude": 151.268071,
    "Latitude": -33.794883
  },
  {
    "Postcode": 1191,
    "Locality": "SYDNEY",
    "State": "NSW",
    "Longitude": 151.268071,
    "Latitude": -33.794883
  },
  {
    "Postcode": 1192,
    "Locality": "SYDNEY",
    "State": "NSW",
    "Longitude": 147.685283,
    "Latitude": -34.790684
  },
  {
    "Postcode": 1193,
    "Locality": "SYDNEY",
    "State": "NSW",
    "Longitude": 151.268071,
    "Latitude": -33.794883
  },
  {
    "Postcode": 1194,
    "Locality": "SYDNEY",
    "State": "NSW",
    "Longitude": 151.268071,
    "Latitude": -33.794883
  },
  {
    "Postcode": 1195,
    "Locality": "SYDNEY",
    "State": "NSW",
    "Longitude": 151.268071,
    "Latitude": -33.794883
  },
  {
    "Postcode": 1196,
    "Locality": "SYDNEY",
    "State": "NSW",
    "Longitude": 151.268071,
    "Latitude": -33.794883
  },
  {
    "Postcode": 1197,
    "Locality": "SYDNEY",
    "State": "NSW",
    "Longitude": 151.268071,
    "Latitude": -33.794883
  },
  {
    "Postcode": 1198,
    "Locality": "SYDNEY",
    "State": "NSW",
    "Longitude": 151.268071,
    "Latitude": -33.794883
  },
  {
    "Postcode": 1199,
    "Locality": "SYDNEY",
    "State": "NSW",
    "Longitude": 151.268071,
    "Latitude": -33.794883
  },
  {
    "Postcode": 1201,
    "Locality": "SYDNEY",
    "State": "NSW",
    "Longitude": 151.268071,
    "Latitude": -33.794883
  },
  {
    "Postcode": 1202,
    "Locality": "SYDNEY",
    "State": "NSW",
    "Longitude": 151.268071,
    "Latitude": -33.794883
  },
  {
    "Postcode": 1203,
    "Locality": "SYDNEY",
    "State": "NSW",
    "Longitude": 151.268071,
    "Latitude": -33.794883
  },
  {
    "Postcode": 1205,
    "Locality": "SYDNEY",
    "State": "NSW",
    "Longitude": 151.268071,
    "Latitude": -33.794883
  },
  {
    "Postcode": 1207,
    "Locality": "SYDNEY",
    "State": "NSW",
    "Longitude": 151.268071,
    "Latitude": -33.794883
  },
  {
    "Postcode": 1208,
    "Locality": "HAYMARKET",
    "State": "NSW",
    "Longitude": 151.659454,
    "Latitude": -29.816475
  },
  {
    "Postcode": 1209,
    "Locality": "AUSTRALIA SQUARE",
    "State": "NSW",
    "Longitude": 151.176251,
    "Latitude": -33.891788
  },
  {
    "Postcode": 1210,
    "Locality": "AUSTRALIA SQUARE",
    "State": "NSW",
    "Longitude": 151.176251,
    "Latitude": -33.891788
  },
  {
    "Postcode": 1211,
    "Locality": "AUSTRALIA SQUARE",
    "State": "NSW",
    "Longitude": 151.176251,
    "Latitude": -33.891788
  },
  {
    "Postcode": 1212,
    "Locality": "AUSTRALIA SQUARE",
    "State": "NSW",
    "Longitude": 151.176251,
    "Latitude": -33.891788
  },
  {
    "Postcode": 1213,
    "Locality": "AUSTRALIA SQUARE",
    "State": "NSW",
    "Longitude": 151.176251,
    "Latitude": -33.891788
  },
  {
    "Postcode": 1214,
    "Locality": "AUSTRALIA SQUARE",
    "State": "NSW",
    "Longitude": 151.176251,
    "Latitude": -33.891788
  },
  {
    "Postcode": 1215,
    "Locality": "AUSTRALIA SQUARE",
    "State": "NSW",
    "Longitude": 151.176251,
    "Latitude": -33.891788
  },
  {
    "Postcode": 1216,
    "Locality": "GROSVENOR PLACE",
    "State": "NSW",
    "Longitude": 151.034025,
    "Latitude": -33.741311
  },
  {
    "Postcode": 1217,
    "Locality": "GROSVENOR PLACE",
    "State": "NSW",
    "Longitude": 151.034025,
    "Latitude": -33.741311
  },
  {
    "Postcode": 1218,
    "Locality": "GROSVENOR PLACE",
    "State": "NSW",
    "Longitude": 151.034025,
    "Latitude": -33.741311
  },
  {
    "Postcode": 1219,
    "Locality": "GROSVENOR PLACE",
    "State": "NSW",
    "Longitude": 151.034025,
    "Latitude": -33.741311
  },
  {
    "Postcode": 1220,
    "Locality": "GROSVENOR PLACE",
    "State": "NSW",
    "Longitude": 151.034025,
    "Latitude": -33.741311
  },
  {
    "Postcode": 1221,
    "Locality": "ROYAL EXCHANGE",
    "State": "NSW",
    "Longitude": 151.207905,
    "Latitude": -33.86533
  },
  {
    "Postcode": 1222,
    "Locality": "ROYAL EXCHANGE",
    "State": "NSW",
    "Longitude": 151.207905,
    "Latitude": -33.86533
  },
  {
    "Postcode": 1223,
    "Locality": "ROYAL EXCHANGE",
    "State": "NSW",
    "Longitude": 151.207905,
    "Latitude": -33.86533
  },
  {
    "Postcode": 1224,
    "Locality": "ROYAL EXCHANGE",
    "State": "NSW",
    "Longitude": 151.207905,
    "Latitude": -33.86533
  },
  {
    "Postcode": 1225,
    "Locality": "ROYAL EXCHANGE",
    "State": "NSW",
    "Longitude": 151.207905,
    "Latitude": -33.86533
  },
  {
    "Postcode": 1226,
    "Locality": "QUEEN VICTORIA BUILDING",
    "State": "NSW",
    "Longitude": 151.206708,
    "Latitude": -33.871749
  },
  {
    "Postcode": 1227,
    "Locality": "QUEEN VICTORIA BUILDING",
    "State": "NSW",
    "Longitude": 151.206708,
    "Latitude": -33.871749
  },
  {
    "Postcode": 1228,
    "Locality": "QUEEN VICTORIA BUILDING",
    "State": "NSW",
    "Longitude": 151.206708,
    "Latitude": -33.871749
  },
  {
    "Postcode": 1229,
    "Locality": "QUEEN VICTORIA BUILDING",
    "State": "NSW",
    "Longitude": 151.206708,
    "Latitude": -33.871749
  },
  {
    "Postcode": 1230,
    "Locality": "QUEEN VICTORIA BUILDING",
    "State": "NSW",
    "Longitude": 151.206708,
    "Latitude": -33.871749
  },
  {
    "Postcode": 1231,
    "Locality": "SYDNEY SOUTH",
    "State": "NSW",
    "Longitude": 151.042528,
    "Latitude": -33.815551
  },
  {
    "Postcode": 1232,
    "Locality": "SYDNEY SOUTH",
    "State": "NSW",
    "Longitude": 151.042528,
    "Latitude": -33.815551
  },
  {
    "Postcode": 1233,
    "Locality": "SYDNEY SOUTH",
    "State": "NSW",
    "Longitude": 151.042528,
    "Latitude": -33.815551
  },
  {
    "Postcode": 1234,
    "Locality": "SYDNEY SOUTH",
    "State": "NSW",
    "Longitude": 151.042528,
    "Latitude": -33.815551
  },
  {
    "Postcode": 1235,
    "Locality": "SYDNEY SOUTH",
    "State": "NSW",
    "Longitude": 151.042528,
    "Latitude": -33.815551
  },
  {
    "Postcode": 1236,
    "Locality": "HAYMARKET",
    "State": "NSW",
    "Longitude": 151.659454,
    "Latitude": -29.816475
  },
  {
    "Postcode": 1237,
    "Locality": "HAYMARKET",
    "State": "NSW",
    "Longitude": 151.659454,
    "Latitude": -29.816475
  },
  {
    "Postcode": 1238,
    "Locality": "HAYMARKET",
    "State": "NSW",
    "Longitude": 151.659454,
    "Latitude": -29.816475
  },
  {
    "Postcode": 1239,
    "Locality": "HAYMARKET",
    "State": "NSW",
    "Longitude": 151.659454,
    "Latitude": -29.816475
  },
  {
    "Postcode": 1240,
    "Locality": "HAYMARKET",
    "State": "NSW",
    "Longitude": 151.659454,
    "Latitude": -29.816475
  },
  {
    "Postcode": 1291,
    "Locality": "SYDNEY",
    "State": "NSW",
    "Longitude": 151.268071,
    "Latitude": -33.794883
  },
  {
    "Postcode": 1292,
    "Locality": "SYDNEY",
    "State": "NSW",
    "Longitude": 151.268071,
    "Latitude": -33.794883
  },
  {
    "Postcode": 1293,
    "Locality": "SYDNEY",
    "State": "NSW",
    "Longitude": 151.268071,
    "Latitude": -33.794883
  },
  {
    "Postcode": 1294,
    "Locality": "SYDNEY",
    "State": "NSW",
    "Longitude": 151.268071,
    "Latitude": -33.794883
  },
  {
    "Postcode": 1295,
    "Locality": "SYDNEY",
    "State": "NSW",
    "Longitude": 151.268071,
    "Latitude": -33.794883
  },
  {
    "Postcode": 1296,
    "Locality": "SYDNEY",
    "State": "NSW",
    "Longitude": 151.268071,
    "Latitude": -33.794883
  },
  {
    "Postcode": 1297,
    "Locality": "SYDNEY",
    "State": "NSW",
    "Longitude": 151.268071,
    "Latitude": -33.794883
  },
  {
    "Postcode": 1298,
    "Locality": "SYDNEY",
    "State": "NSW",
    "Longitude": 151.268071,
    "Latitude": -33.794883
  },
  {
    "Postcode": 1299,
    "Locality": "SYDNEY",
    "State": "NSW",
    "Longitude": 151.268071,
    "Latitude": -33.794883
  },
  {
    "Postcode": 1300,
    "Locality": "DARLINGHURST",
    "State": "NSW",
    "Longitude": 151.220876,
    "Latitude": -33.877331
  },
  {
    "Postcode": 1314,
    "Locality": "EASTERN SUBURBS MC",
    "State": "NSW",
    "Longitude": 151.21,
    "Latitude": -33.9508
  },
  {
    "Postcode": 1335,
    "Locality": "POTTS POINT",
    "State": "NSW",
    "Longitude": 151.117575,
    "Latitude": -33.82269
  },
  {
    "Postcode": 1340,
    "Locality": "KINGS CROSS",
    "State": "NSW",
    "Longitude": 148.021014,
    "Latitude": -35.537721
  },
  {
    "Postcode": 1350,
    "Locality": "WOOLLAHRA",
    "State": "NSW",
    "Longitude": 151.240508,
    "Latitude": -33.88871
  },
  {
    "Postcode": 1355,
    "Locality": "BONDI JUNCTION",
    "State": "NSW",
    "Longitude": 151.262502,
    "Latitude": -33.893739
  },
  {
    "Postcode": 1360,
    "Locality": "DOUBLE BAY",
    "State": "NSW",
    "Longitude": 151.241938,
    "Latitude": -33.87584
  },
  {
    "Postcode": 1401,
    "Locality": "BROADWAY",
    "State": "NSW",
    "Longitude": 151.199825,
    "Latitude": -33.884217
  },
  {
    "Postcode": 1419,
    "Locality": "SOUTHERN SUBURBS MC",
    "State": "NSW",
    "Longitude": 151.094,
    "Latitude": -34.0641
  },
  {
    "Postcode": 1420,
    "Locality": "STRAWBERRY HILLS",
    "State": "NSW",
    "Longitude": 150.931838,
    "Latitude": -33.726098
  },
  {
    "Postcode": 1422,
    "Locality": "STRAWBERRY HILLS",
    "State": "NSW",
    "Longitude": 150.931838,
    "Latitude": -33.726098
  },
  {
    "Postcode": 1423,
    "Locality": "STRAWBERRY HILLS",
    "State": "NSW",
    "Longitude": 150.931838,
    "Latitude": -33.726098
  },
  {
    "Postcode": 1424,
    "Locality": "STRAWBERRY HILLS",
    "State": "NSW",
    "Longitude": 150.931838,
    "Latitude": -33.726098
  },
  {
    "Postcode": 1425,
    "Locality": "STRAWBERRY HILLS",
    "State": "NSW",
    "Longitude": 150.931838,
    "Latitude": -33.726098
  },
  {
    "Postcode": 1426,
    "Locality": "STRAWBERRY HILLS",
    "State": "NSW",
    "Longitude": 150.931838,
    "Latitude": -33.726098
  },
  {
    "Postcode": 1427,
    "Locality": "STRAWBERRY HILLS",
    "State": "NSW",
    "Longitude": 150.931838,
    "Latitude": -33.726098
  },
  {
    "Postcode": 1428,
    "Locality": "STRAWBERRY HILLS",
    "State": "NSW",
    "Longitude": 150.931838,
    "Latitude": -33.726098
  },
  {
    "Postcode": 1429,
    "Locality": "STRAWBERRY HILLS",
    "State": "NSW",
    "Longitude": 150.931838,
    "Latitude": -33.726098
  },
  {
    "Postcode": 1430,
    "Locality": "EVELEIGH",
    "State": "NSW",
    "Longitude": 151.199489,
    "Latitude": -33.890232
  },
  {
    "Postcode": 1435,
    "Locality": "ALEXANDRIA",
    "State": "NSW",
    "Longitude": 151.108248,
    "Latitude": -33.711785
  },
  {
    "Postcode": 1440,
    "Locality": "WATERLOO",
    "State": "NSW",
    "Longitude": 151.057914,
    "Latitude": -33.902836
  },
  {
    "Postcode": 1441,
    "Locality": "WATERLOO",
    "State": "NSW",
    "Longitude": 151.057914,
    "Latitude": -33.902836
  },
  {
    "Postcode": 1445,
    "Locality": "ROSEBERY",
    "State": "NSW",
    "Longitude": 151.007691,
    "Latitude": -34.083089
  },
  {
    "Postcode": 1450,
    "Locality": "CAMPERDOWN",
    "State": "NSW",
    "Longitude": 153.13679,
    "Latitude": -30.305815
  },
  {
    "Postcode": 1455,
    "Locality": "BOTANY",
    "State": "NSW",
    "Longitude": 151.197644,
    "Latitude": -33.947087
  },
  {
    "Postcode": 1460,
    "Locality": "MASCOT",
    "State": "NSW",
    "Longitude": 151.210791,
    "Latitude": -33.926669
  },
  {
    "Postcode": 1465,
    "Locality": "KENSINGTON",
    "State": "NSW",
    "Longitude": 151.140735,
    "Latitude": -33.888549
  },
  {
    "Postcode": 1466,
    "Locality": "UNSW SYDNEY",
    "State": "NSW",
    "Longitude": 151.234417,
    "Latitude": -33.906561
  },
  {
    "Postcode": 1470,
    "Locality": "DRUMMOYNE",
    "State": "NSW",
    "Longitude": 151.151958,
    "Latitude": -33.842999
  },
  {
    "Postcode": 1475,
    "Locality": "MARRICKVILLE",
    "State": "NSW",
    "Longitude": 151.15334,
    "Latitude": -33.90911
  },
  {
    "Postcode": 1476,
    "Locality": "MARRICKVILLE",
    "State": "NSW",
    "Longitude": 151.15334,
    "Latitude": -33.90911
  },
  {
    "Postcode": 1480,
    "Locality": "KINGSGROVE",
    "State": "NSW",
    "Longitude": 151.100027,
    "Latitude": -33.935923
  },
  {
    "Postcode": 1481,
    "Locality": "HURSTVILLE BC",
    "State": "NSW",
    "Longitude": 151.101,
    "Latitude": -33.9646
  },
  {
    "Postcode": 1484,
    "Locality": "KINGSGROVE DC",
    "State": "NSW",
    "Longitude": 151.101,
    "Latitude": -33.9386
  },
  {
    "Postcode": 1485,
    "Locality": "KOGARAH",
    "State": "NSW",
    "Longitude": 151.140345,
    "Latitude": -33.974354
  },
  {
    "Postcode": 1490,
    "Locality": "MIRANDA",
    "State": "NSW",
    "Longitude": 151.107201,
    "Latitude": -34.035878
  },
  {
    "Postcode": 1493,
    "Locality": "HURSTVILLE",
    "State": "NSW",
    "Longitude": 151.088939,
    "Latitude": -33.975869
  },
  {
    "Postcode": 1495,
    "Locality": "CARINGBAH",
    "State": "NSW",
    "Longitude": 151.123943,
    "Latitude": -34.046927
  },
  {
    "Postcode": 1499,
    "Locality": "SUTHERLAND",
    "State": "NSW",
    "Longitude": 151.0622,
    "Latitude": -34.015705
  },
  {
    "Postcode": 1515,
    "Locality": "WEST CHATSWOOD",
    "State": "NSW",
    "Longitude": 151.207261,
    "Latitude": -33.824607
  },
  {
    "Postcode": 1560,
    "Locality": "NORTHBRIDGE",
    "State": "NSW",
    "Longitude": 151.214797,
    "Latitude": -33.812636
  },
  {
    "Postcode": 1565,
    "Locality": "MILSONS POINT",
    "State": "NSW",
    "Longitude": 151.193071,
    "Latitude": -33.865367
  },
  {
    "Postcode": 1570,
    "Locality": "ARTARMON",
    "State": "NSW",
    "Longitude": 151.192733,
    "Latitude": -33.808087
  },
  {
    "Postcode": 1585,
    "Locality": "CROWS NEST",
    "State": "NSW",
    "Longitude": 151.20085,
    "Latitude": -33.83459
  },
  {
    "Postcode": 1590,
    "Locality": "ST LEONARDS",
    "State": "NSW",
    "Longitude": 151.468652,
    "Latitude": -33.292001
  },
  {
    "Postcode": 1595,
    "Locality": "LANE COVE",
    "State": "NSW",
    "Longitude": 151.187955,
    "Latitude": -33.791875
  },
  {
    "Postcode": 1597,
    "Locality": "LANE COVE",
    "State": "NSW",
    "Longitude": 151.187955,
    "Latitude": -33.791875
  },
  {
    "Postcode": 1602,
    "Locality": "LANE COVE DC",
    "State": "NSW",
    "Longitude": 151.166,
    "Latitude": -33.8148
  },
  {
    "Postcode": 1630,
    "Locality": "HORNSBY",
    "State": "NSW",
    "Longitude": 151.099812,
    "Latitude": -33.707684
  },
  {
    "Postcode": 1635,
    "Locality": "HORNSBY WESTFIELD",
    "State": "NSW",
    "Longitude": 151.101,
    "Latitude": -33.7046
  },
  {
    "Postcode": 1639,
    "Locality": "FRENCHS FOREST",
    "State": "NSW",
    "Longitude": 151.246751,
    "Latitude": -33.793137
  },
  {
    "Postcode": 1640,
    "Locality": "FRENCHS FOREST",
    "State": "NSW",
    "Longitude": 151.246751,
    "Latitude": -33.793137
  },
  {
    "Postcode": 1655,
    "Locality": "MANLY",
    "State": "NSW",
    "Longitude": 151.505125,
    "Latitude": -33.329799
  },
  {
    "Postcode": 1658,
    "Locality": "MONA VALE",
    "State": "NSW",
    "Longitude": 151.216799,
    "Latitude": -33.698773
  },
  {
    "Postcode": 1660,
    "Locality": "MONA VALE",
    "State": "NSW",
    "Longitude": 151.216799,
    "Latitude": -33.698773
  },
  {
    "Postcode": 1670,
    "Locality": "NORTH RYDE BC",
    "State": "NSW",
    "Longitude": 151.12,
    "Latitude": -33.7932
  },
  {
    "Postcode": 1675,
    "Locality": "GLADESVILLE",
    "State": "NSW",
    "Longitude": 151.139681,
    "Latitude": -33.833033
  },
  {
    "Postcode": 1680,
    "Locality": "RYDE",
    "State": "NSW",
    "Longitude": 151.137807,
    "Latitude": -33.761498
  },
  {
    "Postcode": 1685,
    "Locality": "WEST RYDE",
    "State": "NSW",
    "Longitude": 151.09064,
    "Latitude": -33.80406
  },
  {
    "Postcode": 1700,
    "Locality": "ERMINGTON",
    "State": "NSW",
    "Longitude": 151.206982,
    "Latitude": -33.950299
  },
  {
    "Postcode": 1710,
    "Locality": "EPPING",
    "State": "NSW",
    "Longitude": 151.116696,
    "Latitude": -33.78417
  },
  {
    "Postcode": 1715,
    "Locality": "PENNANT HILLS",
    "State": "NSW",
    "Longitude": 151.049106,
    "Latitude": -33.758433
  },
  {
    "Postcode": 1730,
    "Locality": "SEVEN HILLS",
    "State": "NSW",
    "Longitude": 150.966912,
    "Latitude": -33.760263
  },
  {
    "Postcode": 1740,
    "Locality": "PARRAMATTA",
    "State": "NSW",
    "Longitude": 151.139472,
    "Latitude": -33.886166
  },
  {
    "Postcode": 1741,
    "Locality": "PARRAMATTA",
    "State": "NSW",
    "Longitude": 151.139472,
    "Latitude": -33.886166
  },
  {
    "Postcode": 1750,
    "Locality": "NORTH PARRAMATTA",
    "State": "NSW",
    "Longitude": 151.023102,
    "Latitude": -33.857053
  },
  {
    "Postcode": 1755,
    "Locality": "BAULKHAM HILLS",
    "State": "NSW",
    "Longitude": 150.968177,
    "Latitude": -33.767239
  },
  {
    "Postcode": 1765,
    "Locality": "CASTLE HILL",
    "State": "NSW",
    "Longitude": 151.030535,
    "Latitude": -33.735906
  },
  {
    "Postcode": 1771,
    "Locality": "PENNANT HILLS",
    "State": "NSW",
    "Longitude": 151.049106,
    "Latitude": -33.758433
  },
  {
    "Postcode": 1781,
    "Locality": "SEVEN HILLS MC",
    "State": "NSW",
    "Longitude": 150.932,
    "Latitude": -33.7779
  },
  {
    "Postcode": 1790,
    "Locality": "ST MARYS",
    "State": "NSW",
    "Longitude": 151.19554,
    "Latitude": -33.859047
  },
  {
    "Postcode": 1800,
    "Locality": "ASHFIELD",
    "State": "NSW",
    "Longitude": 151.124008,
    "Latitude": -33.887602
  },
  {
    "Postcode": 1805,
    "Locality": "BURWOOD",
    "State": "NSW",
    "Longitude": 151.10082,
    "Latitude": -33.891556
  },
  {
    "Postcode": 1811,
    "Locality": "SILVERWATER",
    "State": "NSW",
    "Longitude": 151.051375,
    "Latitude": -33.82328
  },
  {
    "Postcode": 1819,
    "Locality": "STRATHFIELD",
    "State": "NSW",
    "Longitude": 151.093326,
    "Latitude": -33.877139
  },
  {
    "Postcode": 1825,
    "Locality": "LIDCOMBE",
    "State": "NSW",
    "Longitude": 151.044768,
    "Latitude": -33.872483
  },
  {
    "Postcode": 1830,
    "Locality": "GRANVILLE",
    "State": "NSW",
    "Longitude": 150.948582,
    "Latitude": -33.859289
  },
  {
    "Postcode": 1831,
    "Locality": "GRANVILLE",
    "State": "NSW",
    "Longitude": 150.948582,
    "Latitude": -33.859289
  },
  {
    "Postcode": 1835,
    "Locality": "AUBURN",
    "State": "NSW",
    "Longitude": 151.023796,
    "Latitude": -33.883928
  },
  {
    "Postcode": 1851,
    "Locality": "WETHERILL PARK DC",
    "State": "NSW",
    "Longitude": 150.911,
    "Latitude": -33.8498
  },
  {
    "Postcode": 1860,
    "Locality": "FAIRFIELD",
    "State": "NSW",
    "Longitude": 150.961124,
    "Latitude": -33.850457
  },
  {
    "Postcode": 1871,
    "Locality": "LIVERPOOL",
    "State": "NSW",
    "Longitude": 151.103632,
    "Latitude": -33.888327
  },
  {
    "Postcode": 1875,
    "Locality": "MOOREBANK",
    "State": "NSW",
    "Longitude": 150.92236,
    "Latitude": -33.954639
  },
  {
    "Postcode": 1885,
    "Locality": "BANKSTOWN",
    "State": "NSW",
    "Longitude": 151.024581,
    "Latitude": -33.907417
  },
  {
    "Postcode": 1888,
    "Locality": "BANKSTOWN",
    "State": "NSW",
    "Longitude": 151.024581,
    "Latitude": -33.907417
  },
  {
    "Postcode": 1890,
    "Locality": "INGLEBURN",
    "State": "NSW",
    "Longitude": 150.802088,
    "Latitude": -33.960035
  },
  {
    "Postcode": 1891,
    "Locality": "MILPERRA",
    "State": "NSW",
    "Longitude": 151.000183,
    "Latitude": -33.932221
  },
  {
    "Postcode": 2000,
    "Locality": "BARANGAROO",
    "State": "NSW",
    "Longitude": 151.2015802,
    "Latitude": -33.86051951
  },
  {
    "Postcode": 2000,
    "Locality": "DARLING HARBOUR",
    "State": "NSW",
    "Longitude": 151.256649,
    "Latitude": -33.859953
  },
  {
    "Postcode": 2000,
    "Locality": "DAWES POINT",
    "State": "NSW",
    "Longitude": 151.256649,
    "Latitude": -33.859953
  },
  {
    "Postcode": 2000,
    "Locality": "HAYMARKET",
    "State": "NSW",
    "Longitude": 151.256649,
    "Latitude": -33.859953
  },
  {
    "Postcode": 2000,
    "Locality": "MILLERS POINT",
    "State": "NSW",
    "Longitude": 151.256649,
    "Latitude": -33.859953
  },
  {
    "Postcode": 2000,
    "Locality": "PARLIAMENT HOUSE",
    "State": "NSW",
    "Longitude": 151.256649,
    "Latitude": -33.859953
  },
  {
    "Postcode": 2000,
    "Locality": "SYDNEY",
    "State": "NSW",
    "Longitude": 151.256649,
    "Latitude": -33.859953
  },
  {
    "Postcode": 2000,
    "Locality": "SYDNEY SOUTH",
    "State": "NSW",
    "Longitude": 151.256649,
    "Latitude": -33.859953
  },
  {
    "Postcode": 2000,
    "Locality": "THE ROCKS",
    "State": "NSW",
    "Longitude": 151.256649,
    "Latitude": -33.859953
  },
  {
    "Postcode": 2001,
    "Locality": "SYDNEY",
    "State": "NSW",
    "Longitude": 151.268071,
    "Latitude": -33.794883
  },
  {
    "Postcode": 2002,
    "Locality": "WORLD SQUARE",
    "State": "NSW",
    "Longitude": 151.2069237,
    "Latitude": -33.8771211
  },
  {
    "Postcode": 2004,
    "Locality": "ALEXANDRIA MC",
    "State": "NSW",
    "Longitude": 151.19,
    "Latitude": -33.908
  },
  {
    "Postcode": 2004,
    "Locality": "EASTERN SUBURBS MC",
    "State": "NSW",
    "Longitude": 151.21,
    "Latitude": -33.9508
  },
  {
    "Postcode": 2006,
    "Locality": "THE UNIVERSITY OF SYDNEY",
    "State": "NSW",
    "Longitude": 151.186507,
    "Latitude": -33.889219
  },
  {
    "Postcode": 2007,
    "Locality": "BROADWAY",
    "State": "NSW",
    "Longitude": 151.19665,
    "Latitude": -33.883189
  },
  {
    "Postcode": 2007,
    "Locality": "ULTIMO",
    "State": "NSW",
    "Longitude": 151.19665,
    "Latitude": -33.883189
  },
  {
    "Postcode": 2008,
    "Locality": "CHIPPENDALE",
    "State": "NSW",
    "Longitude": 151.193858,
    "Latitude": -33.891146
  },
  {
    "Postcode": 2008,
    "Locality": "DARLINGTON",
    "State": "NSW",
    "Longitude": 151.193858,
    "Latitude": -33.891146
  },
  {
    "Postcode": 2008,
    "Locality": "GOLDEN GROVE",
    "State": "NSW",
    "Longitude": 151.193858,
    "Latitude": -33.891146
  },
  {
    "Postcode": 2009,
    "Locality": "DARLING ISLAND",
    "State": "NSW",
    "Longitude": 151.193055,
    "Latitude": -33.871222
  },
  {
    "Postcode": 2009,
    "Locality": "PYRMONT",
    "State": "NSW",
    "Longitude": 151.193055,
    "Latitude": -33.871222
  },
  {
    "Postcode": 2010,
    "Locality": "DARLINGHURST",
    "State": "NSW",
    "Longitude": 151.212262,
    "Latitude": -33.884119
  },
  {
    "Postcode": 2010,
    "Locality": "SURRY HILLS",
    "State": "NSW",
    "Longitude": 151.212262,
    "Latitude": -33.884119
  },
  {
    "Postcode": 2010,
    "Locality": "TAYLOR SQUARE",
    "State": "NSW",
    "Longitude": 151.212262,
    "Latitude": -33.884119
  },
  {
    "Postcode": 2011,
    "Locality": "ELIZABETH BAY",
    "State": "NSW",
    "Longitude": 151.221626,
    "Latitude": -33.873599
  },
  {
    "Postcode": 2011,
    "Locality": "HMAS KUTTABUL",
    "State": "NSW",
    "Longitude": 151.221626,
    "Latitude": -33.873599
  },
  {
    "Postcode": 2011,
    "Locality": "KINGS CROSS",
    "State": "NSW",
    "Longitude": 151.221626,
    "Latitude": -33.873599
  },
  {
    "Postcode": 2011,
    "Locality": "POTTS POINT",
    "State": "NSW",
    "Longitude": 151.221626,
    "Latitude": -33.873599
  },
  {
    "Postcode": 2011,
    "Locality": "RUSHCUTTERS BAY",
    "State": "NSW",
    "Longitude": 151.221626,
    "Latitude": -33.873599
  },
  {
    "Postcode": 2011,
    "Locality": "WOOLLOOMOOLOO",
    "State": "NSW",
    "Longitude": 151.221626,
    "Latitude": -33.873599
  },
  {
    "Postcode": 2012,
    "Locality": "STRAWBERRY HILLS",
    "State": "NSW",
    "Longitude": 150.931838,
    "Latitude": -33.726098
  },
  {
    "Postcode": 2013,
    "Locality": "STRAWBERRY HILLS",
    "State": "NSW",
    "Longitude": 150.931838,
    "Latitude": -33.726098
  },
  {
    "Postcode": 2015,
    "Locality": "ALEXANDRIA",
    "State": "NSW",
    "Longitude": 151.194825,
    "Latitude": -33.910105
  },
  {
    "Postcode": 2015,
    "Locality": "BEACONSFIELD",
    "State": "NSW",
    "Longitude": 151.194825,
    "Latitude": -33.910105
  },
  {
    "Postcode": 2015,
    "Locality": "EVELEIGH",
    "State": "NSW",
    "Longitude": 151.194825,
    "Latitude": -33.910105
  },
  {
    "Postcode": 2016,
    "Locality": "REDFERN",
    "State": "NSW",
    "Longitude": 151.206211,
    "Latitude": -33.894912
  },
  {
    "Postcode": 2017,
    "Locality": "WATERLOO",
    "State": "NSW",
    "Longitude": 151.206316,
    "Latitude": -33.903892
  },
  {
    "Postcode": 2017,
    "Locality": "WATERLOO DC",
    "State": "NSW",
    "Longitude": 0,
    "Latitude": 0
  },
  {
    "Postcode": 2017,
    "Locality": "ZETLAND",
    "State": "NSW",
    "Longitude": 151.206316,
    "Latitude": -33.903892
  },
  {
    "Postcode": 2018,
    "Locality": "EASTLAKES",
    "State": "NSW",
    "Longitude": 151.202697,
    "Latitude": -33.9233
  },
  {
    "Postcode": 2018,
    "Locality": "ROSEBERY",
    "State": "NSW",
    "Longitude": 151.202697,
    "Latitude": -33.9233
  },
  {
    "Postcode": 2019,
    "Locality": "BANKSMEADOW",
    "State": "NSW",
    "Longitude": 151.207285,
    "Latitude": -33.946923
  },
  {
    "Postcode": 2019,
    "Locality": "BOTANY",
    "State": "NSW",
    "Longitude": 151.207285,
    "Latitude": -33.946923
  },
  {
    "Postcode": 2020,
    "Locality": "MASCOT",
    "State": "NSW",
    "Longitude": 151.176775,
    "Latitude": -33.936179
  },
  {
    "Postcode": 2020,
    "Locality": "SYDNEY DOMESTIC AIRPORT",
    "State": "NSW",
    "Longitude": 151.176775,
    "Latitude": -33.936179
  },
  {
    "Postcode": 2020,
    "Locality": "SYDNEY INTERNATIONAL AIRPORT",
    "State": "NSW",
    "Longitude": 151.176775,
    "Latitude": -33.936179
  },
  {
    "Postcode": 2021,
    "Locality": "CENTENNIAL PARK",
    "State": "NSW",
    "Longitude": 151.227236,
    "Latitude": -33.895705
  },
  {
    "Postcode": 2021,
    "Locality": "MOORE PARK",
    "State": "NSW",
    "Longitude": 151.227236,
    "Latitude": -33.895705
  },
  {
    "Postcode": 2021,
    "Locality": "PADDINGTON",
    "State": "NSW",
    "Longitude": 151.227236,
    "Latitude": -33.895705
  },
  {
    "Postcode": 2022,
    "Locality": "BONDI JUNCTION",
    "State": "NSW",
    "Longitude": 151.245049,
    "Latitude": -33.896401
  },
  {
    "Postcode": 2022,
    "Locality": "BONDI JUNCTION PLAZA",
    "State": "NSW",
    "Longitude": 151.245049,
    "Latitude": -33.896401
  },
  {
    "Postcode": 2022,
    "Locality": "QUEENS PARK",
    "State": "NSW",
    "Longitude": 151.245049,
    "Latitude": -33.896401
  },
  {
    "Postcode": 2023,
    "Locality": "BELLEVUE HILL",
    "State": "NSW",
    "Longitude": 151.25591,
    "Latitude": -33.884685
  },
  {
    "Postcode": 2024,
    "Locality": "BRONTE",
    "State": "NSW",
    "Longitude": 151.259392,
    "Latitude": -33.904414
  },
  {
    "Postcode": 2024,
    "Locality": "CHARING CROSS",
    "State": "NSW",
    "Longitude": 151.259392,
    "Latitude": -33.904414
  },
  {
    "Postcode": 2024,
    "Locality": "WAVERLEY",
    "State": "NSW",
    "Longitude": 151.259392,
    "Latitude": -33.904414
  },
  {
    "Postcode": 2025,
    "Locality": "WOOLLAHRA",
    "State": "NSW",
    "Longitude": 151.240508,
    "Latitude": -33.88871
  },
  {
    "Postcode": 2026,
    "Locality": "BEN BUCKLER",
    "State": "NSW",
    "Longitude": 151.268968,
    "Latitude": -33.891041
  },
  {
    "Postcode": 2026,
    "Locality": "BONDI",
    "State": "NSW",
    "Longitude": 151.268968,
    "Latitude": -33.891041
  },
  {
    "Postcode": 2026,
    "Locality": "BONDI BEACH",
    "State": "NSW",
    "Longitude": 151.268968,
    "Latitude": -33.891041
  },
  {
    "Postcode": 2026,
    "Locality": "NORTH BONDI",
    "State": "NSW",
    "Longitude": 151.268968,
    "Latitude": -33.891041
  },
  {
    "Postcode": 2026,
    "Locality": "TAMARAMA",
    "State": "NSW",
    "Longitude": 151.268968,
    "Latitude": -33.891041
  },
  {
    "Postcode": 2027,
    "Locality": "DARLING POINT",
    "State": "NSW",
    "Longitude": 151.250494,
    "Latitude": -33.868972
  },
  {
    "Postcode": 2027,
    "Locality": "EDGECLIFF",
    "State": "NSW",
    "Longitude": 151.250494,
    "Latitude": -33.868972
  },
  {
    "Postcode": 2027,
    "Locality": "HMAS RUSHCUTTERS",
    "State": "NSW",
    "Longitude": 151.250494,
    "Latitude": -33.868972
  },
  {
    "Postcode": 2027,
    "Locality": "POINT PIPER",
    "State": "NSW",
    "Longitude": 151.250494,
    "Latitude": -33.868972
  },
  {
    "Postcode": 2028,
    "Locality": "DOUBLE BAY",
    "State": "NSW",
    "Longitude": 151.240965,
    "Latitude": -33.878413
  },
  {
    "Postcode": 2029,
    "Locality": "ROSE BAY",
    "State": "NSW",
    "Longitude": 151.266989,
    "Latitude": -33.875709
  },
  {
    "Postcode": 2030,
    "Locality": "DIAMOND BAY",
    "State": "NSW",
    "Longitude": 151.275977,
    "Latitude": -33.858378
  },
  {
    "Postcode": 2030,
    "Locality": "DOVER HEIGHTS",
    "State": "NSW",
    "Longitude": 151.275977,
    "Latitude": -33.858378
  },
  {
    "Postcode": 2030,
    "Locality": "HMAS WATSON",
    "State": "NSW",
    "Longitude": 151.275977,
    "Latitude": -33.858378
  },
  {
    "Postcode": 2030,
    "Locality": "ROSE BAY NORTH",
    "State": "NSW",
    "Longitude": 151.275977,
    "Latitude": -33.858378
  },
  {
    "Postcode": 2030,
    "Locality": "VAUCLUSE",
    "State": "NSW",
    "Longitude": 151.275977,
    "Latitude": -33.858378
  },
  {
    "Postcode": 2030,
    "Locality": "WATSONS BAY",
    "State": "NSW",
    "Longitude": 151.275977,
    "Latitude": -33.858378
  },
  {
    "Postcode": 2031,
    "Locality": "CLOVELLY",
    "State": "NSW",
    "Longitude": 151.239167,
    "Latitude": -33.914832
  },
  {
    "Postcode": 2031,
    "Locality": "CLOVELLY WEST",
    "State": "NSW",
    "Longitude": 151.239167,
    "Latitude": -33.914832
  },
  {
    "Postcode": 2031,
    "Locality": "RANDWICK",
    "State": "NSW",
    "Longitude": 151.239167,
    "Latitude": -33.914832
  },
  {
    "Postcode": 2031,
    "Locality": "RANDWICK DC",
    "State": "NSW",
    "Longitude": 0,
    "Latitude": 0
  },
  {
    "Postcode": 2031,
    "Locality": "ST PAULS",
    "State": "NSW",
    "Longitude": 151.239167,
    "Latitude": -33.914832
  },
  {
    "Postcode": 2032,
    "Locality": "DACEYVILLE",
    "State": "NSW",
    "Longitude": 151.223936,
    "Latitude": -33.930314
  },
  {
    "Postcode": 2032,
    "Locality": "KINGSFORD",
    "State": "NSW",
    "Longitude": 151.223936,
    "Latitude": -33.930314
  },
  {
    "Postcode": 2033,
    "Locality": "KENSINGTON",
    "State": "NSW",
    "Longitude": 151.218435,
    "Latitude": -33.91139
  },
  {
    "Postcode": 2034,
    "Locality": "COOGEE",
    "State": "NSW",
    "Longitude": 151.252171,
    "Latitude": -33.929096
  },
  {
    "Postcode": 2034,
    "Locality": "SOUTH COOGEE",
    "State": "NSW",
    "Longitude": 151.252171,
    "Latitude": -33.929096
  },
  {
    "Postcode": 2035,
    "Locality": "MAROUBRA",
    "State": "NSW",
    "Longitude": 151.241292,
    "Latitude": -33.945635
  },
  {
    "Postcode": 2035,
    "Locality": "MAROUBRA SOUTH",
    "State": "NSW",
    "Longitude": 151.241292,
    "Latitude": -33.945635
  },
  {
    "Postcode": 2035,
    "Locality": "PAGEWOOD",
    "State": "NSW",
    "Longitude": 151.241292,
    "Latitude": -33.945635
  },
  {
    "Postcode": 2036,
    "Locality": "CHIFLEY",
    "State": "NSW",
    "Longitude": 151.237844,
    "Latitude": -33.969624
  },
  {
    "Postcode": 2036,
    "Locality": "EASTGARDENS",
    "State": "NSW",
    "Longitude": 151.237844,
    "Latitude": -33.969624
  },
  {
    "Postcode": 2036,
    "Locality": "HILLSDALE",
    "State": "NSW",
    "Longitude": 151.237844,
    "Latitude": -33.969624
  },
  {
    "Postcode": 2036,
    "Locality": "LA PEROUSE",
    "State": "NSW",
    "Longitude": 151.237844,
    "Latitude": -33.969624
  },
  {
    "Postcode": 2036,
    "Locality": "LITTLE BAY",
    "State": "NSW",
    "Longitude": 151.237844,
    "Latitude": -33.969624
  },
  {
    "Postcode": 2036,
    "Locality": "MALABAR",
    "State": "NSW",
    "Longitude": 151.237844,
    "Latitude": -33.969624
  },
  {
    "Postcode": 2036,
    "Locality": "MATRAVILLE",
    "State": "NSW",
    "Longitude": 151.237844,
    "Latitude": -33.969624
  },
  {
    "Postcode": 2036,
    "Locality": "PHILLIP BAY",
    "State": "NSW",
    "Longitude": 151.237844,
    "Latitude": -33.969624
  },
  {
    "Postcode": 2036,
    "Locality": "PORT BOTANY",
    "State": "NSW",
    "Longitude": 151.237844,
    "Latitude": -33.969624
  },
  {
    "Postcode": 2037,
    "Locality": "FOREST LODGE",
    "State": "NSW",
    "Longitude": 151.184458,
    "Latitude": -33.880179
  },
  {
    "Postcode": 2037,
    "Locality": "GLEBE",
    "State": "NSW",
    "Longitude": 151.184458,
    "Latitude": -33.880179
  },
  {
    "Postcode": 2038,
    "Locality": "ANNANDALE",
    "State": "NSW",
    "Longitude": 151.170165,
    "Latitude": -33.881624
  },
  {
    "Postcode": 2039,
    "Locality": "ROZELLE",
    "State": "NSW",
    "Longitude": 151.171915,
    "Latitude": -33.867187
  },
  {
    "Postcode": 2040,
    "Locality": "LEICHHARDT",
    "State": "NSW",
    "Longitude": 151.156819,
    "Latitude": -33.878774
  },
  {
    "Postcode": 2040,
    "Locality": "LILYFIELD",
    "State": "NSW",
    "Longitude": 151.156819,
    "Latitude": -33.878774
  },
  {
    "Postcode": 2041,
    "Locality": "BALMAIN",
    "State": "NSW",
    "Longitude": 151.180095,
    "Latitude": -33.858556
  },
  {
    "Postcode": 2041,
    "Locality": "BALMAIN EAST",
    "State": "NSW",
    "Longitude": 151.180095,
    "Latitude": -33.858556
  },
  {
    "Postcode": 2041,
    "Locality": "BIRCHGROVE",
    "State": "NSW",
    "Longitude": 151.180095,
    "Latitude": -33.858556
  },
  {
    "Postcode": 2042,
    "Locality": "ENMORE",
    "State": "NSW",
    "Longitude": 151.175354,
    "Latitude": -33.900649
  },
  {
    "Postcode": 2042,
    "Locality": "NEWTOWN",
    "State": "NSW",
    "Longitude": 151.175354,
    "Latitude": -33.900649
  },
  {
    "Postcode": 2043,
    "Locality": "ERSKINEVILLE",
    "State": "NSW",
    "Longitude": 151.184665,
    "Latitude": -33.903521
  },
  {
    "Postcode": 2044,
    "Locality": "ST PETERS",
    "State": "NSW",
    "Longitude": 151.17074,
    "Latitude": -33.920698
  },
  {
    "Postcode": 2044,
    "Locality": "ST PETERS DC",
    "State": "NSW",
    "Longitude": 0,
    "Latitude": 0
  },
  {
    "Postcode": 2044,
    "Locality": "SYDENHAM",
    "State": "NSW",
    "Longitude": 151.17074,
    "Latitude": -33.920698
  },
  {
    "Postcode": 2044,
    "Locality": "TEMPE",
    "State": "NSW",
    "Longitude": 151.17074,
    "Latitude": -33.920698
  },
  {
    "Postcode": 2045,
    "Locality": "HABERFIELD",
    "State": "NSW",
    "Longitude": 151.138684,
    "Latitude": -33.879301
  },
  {
    "Postcode": 2046,
    "Locality": "ABBOTSFORD",
    "State": "NSW",
    "Longitude": 151.133865,
    "Latitude": -33.866044
  },
  {
    "Postcode": 2046,
    "Locality": "CANADA BAY",
    "State": "NSW",
    "Longitude": 151.133865,
    "Latitude": -33.866044
  },
  {
    "Postcode": 2046,
    "Locality": "CHISWICK",
    "State": "NSW",
    "Longitude": 151.133865,
    "Latitude": -33.866044
  },
  {
    "Postcode": 2046,
    "Locality": "FIVE DOCK",
    "State": "NSW",
    "Longitude": 151.133865,
    "Latitude": -33.866044
  },
  {
    "Postcode": 2046,
    "Locality": "RODD POINT",
    "State": "NSW",
    "Longitude": 151.133865,
    "Latitude": -33.866044
  },
  {
    "Postcode": 2046,
    "Locality": "RUSSELL LEA",
    "State": "NSW",
    "Longitude": 151.133865,
    "Latitude": -33.866044
  },
  {
    "Postcode": 2046,
    "Locality": "WAREEMBA",
    "State": "NSW",
    "Longitude": 151.133865,
    "Latitude": -33.866044
  },
  {
    "Postcode": 2047,
    "Locality": "DRUMMOYNE",
    "State": "NSW",
    "Longitude": 151.165735,
    "Latitude": -33.853924
  },
  {
    "Postcode": 2048,
    "Locality": "STANMORE",
    "State": "NSW",
    "Longitude": 151.16564,
    "Latitude": -33.89418
  },
  {
    "Postcode": 2048,
    "Locality": "WESTGATE",
    "State": "NSW",
    "Longitude": 151.16564,
    "Latitude": -33.89418
  },
  {
    "Postcode": 2049,
    "Locality": "LEWISHAM",
    "State": "NSW",
    "Longitude": 151.15085,
    "Latitude": -33.897219
  },
  {
    "Postcode": 2049,
    "Locality": "PETERSHAM",
    "State": "NSW",
    "Longitude": 151.15085,
    "Latitude": -33.897219
  },
  {
    "Postcode": 2049,
    "Locality": "PETERSHAM NORTH",
    "State": "NSW",
    "Longitude": 151.15085,
    "Latitude": -33.897219
  },
  {
    "Postcode": 2050,
    "Locality": "CAMPERDOWN",
    "State": "NSW",
    "Longitude": 151.17598,
    "Latitude": -33.89037
  },
  {
    "Postcode": 2050,
    "Locality": "MISSENDEN ROAD",
    "State": "NSW",
    "Longitude": 151.17598,
    "Latitude": -33.89037
  },
  {
    "Postcode": 2052,
    "Locality": "UNSW SYDNEY",
    "State": "NSW",
    "Longitude": 151.234417,
    "Latitude": -33.906561
  },
  {
    "Postcode": 2055,
    "Locality": "NORTH SYDNEY",
    "State": "NSW",
    "Longitude": 151.104935,
    "Latitude": -33.802837
  },
  {
    "Postcode": 2057,
    "Locality": "CHATSWOOD",
    "State": "NSW",
    "Longitude": 151.1899,
    "Latitude": -33.791988
  },
  {
    "Postcode": 2058,
    "Locality": "NORTHERN SUBURBS MC",
    "State": "NSW",
    "Longitude": 146.921,
    "Latitude": -31.2532
  },
  {
    "Postcode": 2059,
    "Locality": "NORTH SYDNEY",
    "State": "NSW",
    "Longitude": 151.104935,
    "Latitude": -33.802837
  },
  {
    "Postcode": 2060,
    "Locality": "HMAS PLATYPUS",
    "State": "NSW",
    "Longitude": 151.204557,
    "Latitude": -33.839863
  },
  {
    "Postcode": 2060,
    "Locality": "HMAS WATERHEN",
    "State": "NSW",
    "Longitude": 151.204557,
    "Latitude": -33.839863
  },
  {
    "Postcode": 2060,
    "Locality": "LAVENDER BAY",
    "State": "NSW",
    "Longitude": 151.204557,
    "Latitude": -33.839863
  },
  {
    "Postcode": 2060,
    "Locality": "MCMAHONS POINT",
    "State": "NSW",
    "Longitude": 151.204557,
    "Latitude": -33.839863
  },
  {
    "Postcode": 2060,
    "Locality": "NORTH SYDNEY",
    "State": "NSW",
    "Longitude": 151.204557,
    "Latitude": -33.839863
  },
  {
    "Postcode": 2060,
    "Locality": "NORTH SYDNEY SHOPPINGWORLD",
    "State": "NSW",
    "Longitude": 151.204557,
    "Latitude": -33.839863
  },
  {
    "Postcode": 2060,
    "Locality": "WAVERTON",
    "State": "NSW",
    "Longitude": 151.204557,
    "Latitude": -33.839863
  },
  {
    "Postcode": 2061,
    "Locality": "KIRRIBILLI",
    "State": "NSW",
    "Longitude": 151.212372,
    "Latitude": -33.848785
  },
  {
    "Postcode": 2061,
    "Locality": "MILSONS POINT",
    "State": "NSW",
    "Longitude": 151.212372,
    "Latitude": -33.848785
  },
  {
    "Postcode": 2062,
    "Locality": "CAMMERAY",
    "State": "NSW",
    "Longitude": 151.21246,
    "Latitude": -33.822837
  },
  {
    "Postcode": 2063,
    "Locality": "NORTHBRIDGE",
    "State": "NSW",
    "Longitude": 151.214797,
    "Latitude": -33.812636
  },
  {
    "Postcode": 2064,
    "Locality": "ARTARMON",
    "State": "NSW",
    "Longitude": 151.183801,
    "Latitude": -33.813209
  },
  {
    "Postcode": 2065,
    "Locality": "CROWS NEST",
    "State": "NSW",
    "Longitude": 151.192212,
    "Latitude": -33.828361
  },
  {
    "Postcode": 2065,
    "Locality": "CROWS NEST DC",
    "State": "NSW",
    "Longitude": 0,
    "Latitude": 0
  },
  {
    "Postcode": 2065,
    "Locality": "GORE HILL",
    "State": "NSW",
    "Longitude": 151.192212,
    "Latitude": -33.828361
  },
  {
    "Postcode": 2065,
    "Locality": "GREENWICH",
    "State": "NSW",
    "Longitude": 151.192212,
    "Latitude": -33.828361
  },
  {
    "Postcode": 2065,
    "Locality": "NAREMBURN",
    "State": "NSW",
    "Longitude": 151.192212,
    "Latitude": -33.828361
  },
  {
    "Postcode": 2065,
    "Locality": "ROYAL NORTH SHORE HOSPITAL",
    "State": "NSW",
    "Longitude": 151.192212,
    "Latitude": -33.828361
  },
  {
    "Postcode": 2065,
    "Locality": "ST LEONARDS",
    "State": "NSW",
    "Longitude": 151.192212,
    "Latitude": -33.828361
  },
  {
    "Postcode": 2065,
    "Locality": "WOLLSTONECRAFT",
    "State": "NSW",
    "Longitude": 151.192212,
    "Latitude": -33.828361
  },
  {
    "Postcode": 2066,
    "Locality": "LANE COVE",
    "State": "NSW",
    "Longitude": 151.160912,
    "Latitude": -33.818641
  },
  {
    "Postcode": 2066,
    "Locality": "LANE COVE NORTH",
    "State": "NSW",
    "Longitude": 151.160912,
    "Latitude": -33.818641
  },
  {
    "Postcode": 2066,
    "Locality": "LANE COVE WEST",
    "State": "NSW",
    "Longitude": 151.160912,
    "Latitude": -33.818641
  },
  {
    "Postcode": 2066,
    "Locality": "LINLEY POINT",
    "State": "NSW",
    "Longitude": 151.160912,
    "Latitude": -33.818641
  },
  {
    "Postcode": 2066,
    "Locality": "LONGUEVILLE",
    "State": "NSW",
    "Longitude": 151.160912,
    "Latitude": -33.818641
  },
  {
    "Postcode": 2066,
    "Locality": "NORTHWOOD",
    "State": "NSW",
    "Longitude": 151.160912,
    "Latitude": -33.818641
  },
  {
    "Postcode": 2066,
    "Locality": "OSBORNE PARK",
    "State": "NSW",
    "Longitude": 151.160912,
    "Latitude": -33.818641
  },
  {
    "Postcode": 2066,
    "Locality": "RIVERVIEW",
    "State": "NSW",
    "Longitude": 151.160912,
    "Latitude": -33.818641
  },
  {
    "Postcode": 2067,
    "Locality": "CHATSWOOD",
    "State": "NSW",
    "Longitude": 151.17711,
    "Latitude": -33.798378
  },
  {
    "Postcode": 2067,
    "Locality": "CHATSWOOD WEST",
    "State": "NSW",
    "Longitude": 151.17711,
    "Latitude": -33.798378
  },
  {
    "Postcode": 2068,
    "Locality": "CASTLECRAG",
    "State": "NSW",
    "Longitude": 151.202715,
    "Latitude": -33.800881
  },
  {
    "Postcode": 2068,
    "Locality": "MIDDLE COVE",
    "State": "NSW",
    "Longitude": 151.202715,
    "Latitude": -33.800881
  },
  {
    "Postcode": 2068,
    "Locality": "NORTH WILLOUGHBY",
    "State": "NSW",
    "Longitude": 151.1973964,
    "Latitude": -33.79634382
  },
  {
    "Postcode": 2068,
    "Locality": "WILLOUGHBY",
    "State": "NSW",
    "Longitude": 151.202715,
    "Latitude": -33.800881
  },
  {
    "Postcode": 2068,
    "Locality": "WILLOUGHBY EAST",
    "State": "NSW",
    "Longitude": 151.206289,
    "Latitude": -33.79909157
  },
  {
    "Postcode": 2068,
    "Locality": "WILLOUGHBY NORTH",
    "State": "NSW",
    "Longitude": 151.202715,
    "Latitude": -33.800881
  },
  {
    "Postcode": 2069,
    "Locality": "CASTLE COVE",
    "State": "NSW",
    "Longitude": 151.195368,
    "Latitude": -33.780246
  },
  {
    "Postcode": 2069,
    "Locality": "ROSEVILLE",
    "State": "NSW",
    "Longitude": 151.195368,
    "Latitude": -33.780246
  },
  {
    "Postcode": 2069,
    "Locality": "ROSEVILLE CHASE",
    "State": "NSW",
    "Longitude": 151.195368,
    "Latitude": -33.780246
  },
  {
    "Postcode": 2070,
    "Locality": "EAST LINDFIELD",
    "State": "NSW",
    "Longitude": 151.162007,
    "Latitude": -33.78042
  },
  {
    "Postcode": 2070,
    "Locality": "LINDFIELD",
    "State": "NSW",
    "Longitude": 151.162007,
    "Latitude": -33.78042
  },
  {
    "Postcode": 2070,
    "Locality": "LINDFIELD WEST",
    "State": "NSW",
    "Longitude": 151.162007,
    "Latitude": -33.78042
  },
  {
    "Postcode": 2071,
    "Locality": "EAST KILLARA",
    "State": "NSW",
    "Longitude": 151.1814551,
    "Latitude": -33.75536381
  },
  {
    "Postcode": 2071,
    "Locality": "KILLARA",
    "State": "NSW",
    "Longitude": 151.171738,
    "Latitude": -33.761834
  },
  {
    "Postcode": 2072,
    "Locality": "GORDON",
    "State": "NSW",
    "Longitude": 151.153176,
    "Latitude": -33.754582
  },
  {
    "Postcode": 2073,
    "Locality": "PYMBLE",
    "State": "NSW",
    "Longitude": 151.130278,
    "Latitude": -33.757296
  },
  {
    "Postcode": 2073,
    "Locality": "WEST PYMBLE",
    "State": "NSW",
    "Longitude": 151.130278,
    "Latitude": -33.757296
  },
  {
    "Postcode": 2074,
    "Locality": "BOBBIN HEAD",
    "State": "NSW",
    "Longitude": 151.123716,
    "Latitude": -33.735222
  },
  {
    "Postcode": 2074,
    "Locality": "NORTH TURRAMURRA",
    "State": "NSW",
    "Longitude": 151.123716,
    "Latitude": -33.735222
  },
  {
    "Postcode": 2074,
    "Locality": "SOUTH TURRAMURRA",
    "State": "NSW",
    "Longitude": 151.123716,
    "Latitude": -33.735222
  },
  {
    "Postcode": 2074,
    "Locality": "TURRAMURRA",
    "State": "NSW",
    "Longitude": 151.123716,
    "Latitude": -33.735222
  },
  {
    "Postcode": 2074,
    "Locality": "WARRAWEE",
    "State": "NSW",
    "Longitude": 151.123716,
    "Latitude": -33.735222
  },
  {
    "Postcode": 2075,
    "Locality": "NORTH ST IVES",
    "State": "NSW",
    "Longitude": 151.16729,
    "Latitude": -33.723693
  },
  {
    "Postcode": 2075,
    "Locality": "ST IVES",
    "State": "NSW",
    "Longitude": 151.16729,
    "Latitude": -33.723693
  },
  {
    "Postcode": 2075,
    "Locality": "ST IVES CHASE",
    "State": "NSW",
    "Longitude": 151.16729,
    "Latitude": -33.723693
  },
  {
    "Postcode": 2076,
    "Locality": "NORMANHURST",
    "State": "NSW",
    "Longitude": 151.108249,
    "Latitude": -33.723263
  },
  {
    "Postcode": 2076,
    "Locality": "NORTH WAHROONGA",
    "State": "NSW",
    "Longitude": 151.1311234,
    "Latitude": -33.6977144
  },
  {
    "Postcode": 2076,
    "Locality": "WAHROONGA",
    "State": "NSW",
    "Longitude": 151.108249,
    "Latitude": -33.723263
  },
  {
    "Postcode": 2077,
    "Locality": "ASQUITH",
    "State": "NSW",
    "Longitude": 151.097508,
    "Latitude": -33.691922
  },
  {
    "Postcode": 2077,
    "Locality": "HORNSBY",
    "State": "NSW",
    "Longitude": 151.097508,
    "Latitude": -33.691922
  },
  {
    "Postcode": 2077,
    "Locality": "HORNSBY HEIGHTS",
    "State": "NSW",
    "Longitude": 151.097508,
    "Latitude": -33.691922
  },
  {
    "Postcode": 2077,
    "Locality": "WAITARA",
    "State": "NSW",
    "Longitude": 151.097508,
    "Latitude": -33.691922
  },
  {
    "Postcode": 2079,
    "Locality": "MOUNT COLAH",
    "State": "NSW",
    "Longitude": 151.112681,
    "Latitude": -33.666637
  },
  {
    "Postcode": 2080,
    "Locality": "MOUNT KURING-GAI",
    "State": "NSW",
    "Longitude": 151.143563,
    "Latitude": -33.658174
  },
  {
    "Postcode": 2081,
    "Locality": "BEROWRA",
    "State": "NSW",
    "Longitude": 151.150498,
    "Latitude": -33.619756
  },
  {
    "Postcode": 2081,
    "Locality": "COWAN",
    "State": "NSW",
    "Longitude": 151.150498,
    "Latitude": -33.619756
  },
  {
    "Postcode": 2082,
    "Locality": "BEROWRA CREEK",
    "State": "NSW",
    "Longitude": 151.138709,
    "Latitude": -33.54620871
  },
  {
    "Postcode": 2082,
    "Locality": "BEROWRA HEIGHTS",
    "State": "NSW",
    "Longitude": 151.168984,
    "Latitude": -33.561858
  },
  {
    "Postcode": 2082,
    "Locality": "BEROWRA WATERS",
    "State": "NSW",
    "Longitude": 151.168984,
    "Latitude": -33.561858
  },
  {
    "Postcode": 2083,
    "Locality": "BAR POINT",
    "State": "NSW",
    "Longitude": 151.194452,
    "Latitude": -33.525322
  },
  {
    "Postcode": 2083,
    "Locality": "BROOKLYN",
    "State": "NSW",
    "Longitude": 151.194452,
    "Latitude": -33.525322
  },
  {
    "Postcode": 2083,
    "Locality": "CHEERO POINT",
    "State": "NSW",
    "Longitude": 151.1920435,
    "Latitude": -33.51046731
  },
  {
    "Postcode": 2083,
    "Locality": "COGRA BAY",
    "State": "NSW",
    "Longitude": 151.194452,
    "Latitude": -33.525322
  },
  {
    "Postcode": 2083,
    "Locality": "DANGAR ISLAND",
    "State": "NSW",
    "Longitude": 151.194452,
    "Latitude": -33.525322
  },
  {
    "Postcode": 2083,
    "Locality": "MILSONS PASSAGE",
    "State": "NSW",
    "Longitude": 151.194452,
    "Latitude": -33.525322
  },
  {
    "Postcode": 2083,
    "Locality": "MOONEY MOONEY",
    "State": "NSW",
    "Longitude": 151.194452,
    "Latitude": -33.525322
  },
  {
    "Postcode": 2084,
    "Locality": "AKUNA BAY",
    "State": "NSW",
    "Longitude": 151.216929,
    "Latitude": -33.650999
  },
  {
    "Postcode": 2084,
    "Locality": "COTTAGE POINT",
    "State": "NSW",
    "Longitude": 151.216929,
    "Latitude": -33.650999
  },
  {
    "Postcode": 2084,
    "Locality": "DUFFYS FOREST",
    "State": "NSW",
    "Longitude": 151.216929,
    "Latitude": -33.650999
  },
  {
    "Postcode": 2084,
    "Locality": "TERREY HILLS",
    "State": "NSW",
    "Longitude": 151.216929,
    "Latitude": -33.650999
  },
  {
    "Postcode": 2085,
    "Locality": "BELROSE",
    "State": "NSW",
    "Longitude": 151.211719,
    "Latitude": -33.728782
  },
  {
    "Postcode": 2085,
    "Locality": "BELROSE WEST",
    "State": "NSW",
    "Longitude": 151.211719,
    "Latitude": -33.728782
  },
  {
    "Postcode": 2085,
    "Locality": "DAVIDSON",
    "State": "NSW",
    "Longitude": 151.211719,
    "Latitude": -33.728782
  },
  {
    "Postcode": 2086,
    "Locality": "FRENCHS FOREST",
    "State": "NSW",
    "Longitude": 151.229211,
    "Latitude": -33.75185
  },
  {
    "Postcode": 2086,
    "Locality": "FRENCHS FOREST EAST",
    "State": "NSW",
    "Longitude": 151.229211,
    "Latitude": -33.75185
  },
  {
    "Postcode": 2087,
    "Locality": "FORESTVILLE",
    "State": "NSW",
    "Longitude": 151.210531,
    "Latitude": -33.766093
  },
  {
    "Postcode": 2087,
    "Locality": "KILLARNEY HEIGHTS",
    "State": "NSW",
    "Longitude": 151.210531,
    "Latitude": -33.766093
  },
  {
    "Postcode": 2088,
    "Locality": "MOSMAN",
    "State": "NSW",
    "Longitude": 151.243351,
    "Latitude": -33.830687
  },
  {
    "Postcode": 2088,
    "Locality": "SPIT JUNCTION",
    "State": "NSW",
    "Longitude": 151.243351,
    "Latitude": -33.830687
  },
  {
    "Postcode": 2089,
    "Locality": "KURRABA POINT",
    "State": "NSW",
    "Longitude": 151.2228263,
    "Latitude": -33.84149573
  },
  {
    "Postcode": 2089,
    "Locality": "NEUTRAL BAY",
    "State": "NSW",
    "Longitude": 151.216869,
    "Latitude": -33.838021
  },
  {
    "Postcode": 2089,
    "Locality": "NEUTRAL BAY JUNCTION",
    "State": "NSW",
    "Longitude": 151.216869,
    "Latitude": -33.838021
  },
  {
    "Postcode": 2090,
    "Locality": "CREMORNE",
    "State": "NSW",
    "Longitude": 151.223094,
    "Latitude": -33.828949
  },
  {
    "Postcode": 2090,
    "Locality": "CREMORNE JUNCTION",
    "State": "NSW",
    "Longitude": 151.223094,
    "Latitude": -33.828949
  },
  {
    "Postcode": 2090,
    "Locality": "CREMORNE POINT",
    "State": "NSW",
    "Longitude": 151.223094,
    "Latitude": -33.828949
  },
  {
    "Postcode": 2091,
    "Locality": "HMAS PENGUIN",
    "State": "NSW",
    "Longitude": 151.261,
    "Latitude": -33.8279
  },
  {
    "Postcode": 2092,
    "Locality": "SEAFORTH",
    "State": "NSW",
    "Longitude": 151.241813,
    "Latitude": -33.796636
  },
  {
    "Postcode": 2093,
    "Locality": "BALGOWLAH",
    "State": "NSW",
    "Longitude": 151.258069,
    "Latitude": -33.79315
  },
  {
    "Postcode": 2093,
    "Locality": "BALGOWLAH HEIGHTS",
    "State": "NSW",
    "Longitude": 151.258069,
    "Latitude": -33.79315
  },
  {
    "Postcode": 2093,
    "Locality": "CLONTARF",
    "State": "NSW",
    "Longitude": 151.258069,
    "Latitude": -33.79315
  },
  {
    "Postcode": 2093,
    "Locality": "MANLY VALE",
    "State": "NSW",
    "Longitude": 151.258069,
    "Latitude": -33.79315
  },
  {
    "Postcode": 2093,
    "Locality": "NORTH BALGOWLAH",
    "State": "NSW",
    "Longitude": 151.258069,
    "Latitude": -33.79315
  },
  {
    "Postcode": 2094,
    "Locality": "FAIRLIGHT",
    "State": "NSW",
    "Longitude": 151.273242,
    "Latitude": -33.795227
  },
  {
    "Postcode": 2095,
    "Locality": "MANLY",
    "State": "NSW",
    "Longitude": 151.294675,
    "Latitude": -33.815482
  },
  {
    "Postcode": 2095,
    "Locality": "MANLY EAST",
    "State": "NSW",
    "Longitude": 151.294675,
    "Latitude": -33.815482
  },
  {
    "Postcode": 2096,
    "Locality": "CURL CURL",
    "State": "NSW",
    "Longitude": 151.28494,
    "Latitude": -33.776781
  },
  {
    "Postcode": 2096,
    "Locality": "FRESHWATER",
    "State": "NSW",
    "Longitude": 151.2849046,
    "Latitude": -33.77509122
  },
  {
    "Postcode": 2096,
    "Locality": "HARBORD",
    "State": "NSW",
    "Longitude": 151.28494,
    "Latitude": -33.776781
  },
  {
    "Postcode": 2096,
    "Locality": "QUEENSCLIFF",
    "State": "NSW",
    "Longitude": 151.28494,
    "Latitude": -33.776781
  },
  {
    "Postcode": 2097,
    "Locality": "COLLAROY",
    "State": "NSW",
    "Longitude": 151.297895,
    "Latitude": -33.739577
  },
  {
    "Postcode": 2097,
    "Locality": "COLLAROY BEACH",
    "State": "NSW",
    "Longitude": 151.297895,
    "Latitude": -33.739577
  },
  {
    "Postcode": 2097,
    "Locality": "COLLAROY PLATEAU",
    "State": "NSW",
    "Longitude": 151.2907075,
    "Latitude": -33.73032061
  },
  {
    "Postcode": 2097,
    "Locality": "COLLAROY PLATEAU WEST",
    "State": "NSW",
    "Longitude": 151.297895,
    "Latitude": -33.739577
  },
  {
    "Postcode": 2097,
    "Locality": "LONG REEF",
    "State": "NSW",
    "Longitude": 151.297895,
    "Latitude": -33.739577
  },
  {
    "Postcode": 2097,
    "Locality": "WHEELER HEIGHTS",
    "State": "NSW",
    "Longitude": 151.297895,
    "Latitude": -33.739577
  },
  {
    "Postcode": 2099,
    "Locality": "CROMER",
    "State": "NSW",
    "Longitude": 151.279999,
    "Latitude": -33.748914
  },
  {
    "Postcode": 2099,
    "Locality": "CROMER HEIGHTS",
    "State": "NSW",
    "Longitude": 151.279999,
    "Latitude": -33.748914
  },
  {
    "Postcode": 2099,
    "Locality": "DEE WHY",
    "State": "NSW",
    "Longitude": 151.279999,
    "Latitude": -33.748914
  },
  {
    "Postcode": 2099,
    "Locality": "DEE WHY BEACH",
    "State": "NSW",
    "Longitude": 151.279999,
    "Latitude": -33.748914
  },
  {
    "Postcode": 2099,
    "Locality": "NARRAWEENA",
    "State": "NSW",
    "Longitude": 151.279999,
    "Latitude": -33.748914
  },
  {
    "Postcode": 2099,
    "Locality": "NORTH CURL CURL",
    "State": "NSW",
    "Longitude": 151.279999,
    "Latitude": -33.748914
  },
  {
    "Postcode": 2099,
    "Locality": "WINGALA",
    "State": "NSW",
    "Longitude": 151.279999,
    "Latitude": -33.748914
  },
  {
    "Postcode": 2100,
    "Locality": "ALLAMBIE",
    "State": "NSW",
    "Longitude": 151.257781,
    "Latitude": -33.766409
  },
  {
    "Postcode": 2100,
    "Locality": "ALLAMBIE HEIGHTS",
    "State": "NSW",
    "Longitude": 151.257781,
    "Latitude": -33.766409
  },
  {
    "Postcode": 2100,
    "Locality": "BEACON HILL",
    "State": "NSW",
    "Longitude": 151.257781,
    "Latitude": -33.766409
  },
  {
    "Postcode": 2100,
    "Locality": "BROOKVALE",
    "State": "NSW",
    "Longitude": 151.257781,
    "Latitude": -33.766409
  },
  {
    "Postcode": 2100,
    "Locality": "NORTH MANLY",
    "State": "NSW",
    "Longitude": 151.257781,
    "Latitude": -33.766409
  },
  {
    "Postcode": 2100,
    "Locality": "OXFORD FALLS",
    "State": "NSW",
    "Longitude": 151.257781,
    "Latitude": -33.766409
  },
  {
    "Postcode": 2100,
    "Locality": "WARRINGAH MALL",
    "State": "NSW",
    "Longitude": 151.257781,
    "Latitude": -33.766409
  },
  {
    "Postcode": 2101,
    "Locality": "ELANORA HEIGHTS",
    "State": "NSW",
    "Longitude": 151.27114,
    "Latitude": -33.707117
  },
  {
    "Postcode": 2101,
    "Locality": "INGLESIDE",
    "State": "NSW",
    "Longitude": 151.27114,
    "Latitude": -33.707117
  },
  {
    "Postcode": 2101,
    "Locality": "NARRABEEN",
    "State": "NSW",
    "Longitude": 151.27114,
    "Latitude": -33.707117
  },
  {
    "Postcode": 2101,
    "Locality": "NARRABEEN PENINSULA",
    "State": "NSW",
    "Longitude": 151.27114,
    "Latitude": -33.707117
  },
  {
    "Postcode": 2101,
    "Locality": "NORTH NARRABEEN",
    "State": "NSW",
    "Longitude": 151.27114,
    "Latitude": -33.707117
  },
  {
    "Postcode": 2102,
    "Locality": "WARRIEWOOD",
    "State": "NSW",
    "Longitude": 151.290953,
    "Latitude": -33.689941
  },
  {
    "Postcode": 2102,
    "Locality": "WARRIEWOOD DC",
    "State": "NSW",
    "Longitude": 0,
    "Latitude": 0
  },
  {
    "Postcode": 2102,
    "Locality": "WARRIEWOOD SHOPPING SQUARE",
    "State": "NSW",
    "Longitude": 151.290953,
    "Latitude": -33.689941
  },
  {
    "Postcode": 2103,
    "Locality": "MONA VALE",
    "State": "NSW",
    "Longitude": 151.302825,
    "Latitude": -33.679336
  },
  {
    "Postcode": 2104,
    "Locality": "BAYVIEW",
    "State": "NSW",
    "Longitude": 151.290921,
    "Latitude": -33.664921
  },
  {
    "Postcode": 2105,
    "Locality": "CHURCH POINT",
    "State": "NSW",
    "Longitude": 151.278293,
    "Latitude": -33.642202
  },
  {
    "Postcode": 2105,
    "Locality": "ELVINA BAY",
    "State": "NSW",
    "Longitude": 151.278293,
    "Latitude": -33.642202
  },
  {
    "Postcode": 2105,
    "Locality": "LOVETT BAY",
    "State": "NSW",
    "Longitude": 151.278293,
    "Latitude": -33.642202
  },
  {
    "Postcode": 2105,
    "Locality": "MCCARRS CREEK",
    "State": "NSW",
    "Longitude": 151.2761086,
    "Latitude": -33.64341347
  },
  {
    "Postcode": 2105,
    "Locality": "MORNING BAY",
    "State": "NSW",
    "Longitude": 151.2815376,
    "Latitude": -33.62434025
  },
  {
    "Postcode": 2105,
    "Locality": "SCOTLAND ISLAND",
    "State": "NSW",
    "Longitude": 151.278293,
    "Latitude": -33.642202
  },
  {
    "Postcode": 2106,
    "Locality": "NEWPORT",
    "State": "NSW",
    "Longitude": 151.314599,
    "Latitude": -33.660707
  },
  {
    "Postcode": 2106,
    "Locality": "NEWPORT BEACH",
    "State": "NSW",
    "Longitude": 151.314599,
    "Latitude": -33.660707
  },
  {
    "Postcode": 2107,
    "Locality": "AVALON",
    "State": "NSW",
    "Longitude": 151.323289,
    "Latitude": -33.634816
  },
  {
    "Postcode": 2107,
    "Locality": "AVALON BEACH",
    "State": "NSW",
    "Longitude": 151.323289,
    "Latitude": -33.634816
  },
  {
    "Postcode": 2107,
    "Locality": "BILGOLA",
    "State": "NSW",
    "Longitude": 151.323289,
    "Latitude": -33.634816
  },
  {
    "Postcode": 2107,
    "Locality": "BILGOLA BEACH",
    "State": "NSW",
    "Longitude": 151.323289,
    "Latitude": -33.634816
  },
  {
    "Postcode": 2107,
    "Locality": "BILGOLA PLATEAU",
    "State": "NSW",
    "Longitude": 151.323289,
    "Latitude": -33.634816
  },
  {
    "Postcode": 2107,
    "Locality": "CAREEL BAY",
    "State": "NSW",
    "Longitude": 151.323289,
    "Latitude": -33.634816
  },
  {
    "Postcode": 2107,
    "Locality": "CLAREVILLE",
    "State": "NSW",
    "Longitude": 151.323289,
    "Latitude": -33.634816
  },
  {
    "Postcode": 2107,
    "Locality": "PARADISE BEACH",
    "State": "NSW",
    "Longitude": 151.323289,
    "Latitude": -33.634816
  },
  {
    "Postcode": 2107,
    "Locality": "TAYLORS POINT",
    "State": "NSW",
    "Longitude": 151.323289,
    "Latitude": -33.634816
  },
  {
    "Postcode": 2107,
    "Locality": "WHALE BEACH",
    "State": "NSW",
    "Longitude": 151.323289,
    "Latitude": -33.634816
  },
  {
    "Postcode": 2108,
    "Locality": "COASTERS RETREAT",
    "State": "NSW",
    "Longitude": 151.322759,
    "Latitude": -33.60382
  },
  {
    "Postcode": 2108,
    "Locality": "CURRAWONG BEACH",
    "State": "NSW",
    "Longitude": 151.322759,
    "Latitude": -33.60382
  },
  {
    "Postcode": 2108,
    "Locality": "GREAT MACKEREL BEACH",
    "State": "NSW",
    "Longitude": 151.322759,
    "Latitude": -33.60382
  },
  {
    "Postcode": 2108,
    "Locality": "MORNING BAY",
    "State": "NSW",
    "Longitude": 151.322759,
    "Latitude": -33.60382
  },
  {
    "Postcode": 2108,
    "Locality": "PALM BEACH",
    "State": "NSW",
    "Longitude": 151.322759,
    "Latitude": -33.60382
  },
  {
    "Postcode": 2108,
    "Locality": "THE BASIN",
    "State": "NSW",
    "Longitude": 151.322759,
    "Latitude": -33.60382
  },
  {
    "Postcode": 2109,
    "Locality": "MACQUARIE UNIVERSITY",
    "State": "NSW",
    "Longitude": 151.113473,
    "Latitude": -33.771558
  },
  {
    "Postcode": 2110,
    "Locality": "HUNTERS HILL",
    "State": "NSW",
    "Longitude": 151.149126,
    "Latitude": -33.836102
  },
  {
    "Postcode": 2110,
    "Locality": "HUNTERS HILL WEST",
    "State": "NSW",
    "Longitude": 151.149126,
    "Latitude": -33.836102
  },
  {
    "Postcode": 2110,
    "Locality": "WOOLWICH",
    "State": "NSW",
    "Longitude": 151.149126,
    "Latitude": -33.836102
  },
  {
    "Postcode": 2111,
    "Locality": "BORONIA PARK",
    "State": "NSW",
    "Longitude": 151.124488,
    "Latitude": -33.829953
  },
  {
    "Postcode": 2111,
    "Locality": "GLADESVILLE",
    "State": "NSW",
    "Longitude": 151.124488,
    "Latitude": -33.829953
  },
  {
    "Postcode": 2111,
    "Locality": "HENLEY",
    "State": "NSW",
    "Longitude": 151.124488,
    "Latitude": -33.829953
  },
  {
    "Postcode": 2111,
    "Locality": "HUNTLEYS COVE",
    "State": "NSW",
    "Longitude": 151.124488,
    "Latitude": -33.829953
  },
  {
    "Postcode": 2111,
    "Locality": "HUNTLEYS POINT",
    "State": "NSW",
    "Longitude": 151.124488,
    "Latitude": -33.829953
  },
  {
    "Postcode": 2111,
    "Locality": "MONASH PARK",
    "State": "NSW",
    "Longitude": 151.124488,
    "Latitude": -33.829953
  },
  {
    "Postcode": 2111,
    "Locality": "TENNYSON POINT",
    "State": "NSW",
    "Longitude": 151.124488,
    "Latitude": -33.829953
  },
  {
    "Postcode": 2112,
    "Locality": "DENISTONE EAST",
    "State": "NSW",
    "Longitude": 151.108447,
    "Latitude": -33.81658
  },
  {
    "Postcode": 2112,
    "Locality": "PUTNEY",
    "State": "NSW",
    "Longitude": 151.108447,
    "Latitude": -33.81658
  },
  {
    "Postcode": 2112,
    "Locality": "RYDE",
    "State": "NSW",
    "Longitude": 151.108447,
    "Latitude": -33.81658
  },
  {
    "Postcode": 2113,
    "Locality": "BLENHEIM ROAD",
    "State": "NSW",
    "Longitude": 151.130233,
    "Latitude": -33.79419
  },
  {
    "Postcode": 2113,
    "Locality": "EAST RYDE",
    "State": "NSW",
    "Longitude": 151.130233,
    "Latitude": -33.79419
  },
  {
    "Postcode": 2113,
    "Locality": "MACQUARIE CENTRE",
    "State": "NSW",
    "Longitude": 151.130233,
    "Latitude": -33.79419
  },
  {
    "Postcode": 2113,
    "Locality": "MACQUARIE PARK",
    "State": "NSW",
    "Longitude": 151.130233,
    "Latitude": -33.79419
  },
  {
    "Postcode": 2113,
    "Locality": "NORTH RYDE",
    "State": "NSW",
    "Longitude": 151.130233,
    "Latitude": -33.79419
  },
  {
    "Postcode": 2114,
    "Locality": "DENISTONE",
    "State": "NSW",
    "Longitude": 151.084181,
    "Latitude": -33.810991
  },
  {
    "Postcode": 2114,
    "Locality": "DENISTONE WEST",
    "State": "NSW",
    "Longitude": 151.084181,
    "Latitude": -33.810991
  },
  {
    "Postcode": 2114,
    "Locality": "MEADOWBANK",
    "State": "NSW",
    "Longitude": 151.084181,
    "Latitude": -33.810991
  },
  {
    "Postcode": 2114,
    "Locality": "MELROSE PARK",
    "State": "NSW",
    "Longitude": 151.084181,
    "Latitude": -33.810991
  },
  {
    "Postcode": 2114,
    "Locality": "WEST RYDE",
    "State": "NSW",
    "Longitude": 151.084181,
    "Latitude": -33.810991
  },
  {
    "Postcode": 2115,
    "Locality": "ERMINGTON",
    "State": "NSW",
    "Longitude": 151.059845,
    "Latitude": -33.813106
  },
  {
    "Postcode": 2116,
    "Locality": "RYDALMERE",
    "State": "NSW",
    "Longitude": 151.036941,
    "Latitude": -33.814368
  },
  {
    "Postcode": 2117,
    "Locality": "DUNDAS",
    "State": "NSW",
    "Longitude": 151.04218,
    "Latitude": -33.797127
  },
  {
    "Postcode": 2117,
    "Locality": "DUNDAS VALLEY",
    "State": "NSW",
    "Longitude": 151.04218,
    "Latitude": -33.797127
  },
  {
    "Postcode": 2117,
    "Locality": "OATLANDS",
    "State": "NSW",
    "Longitude": 151.04218,
    "Latitude": -33.797127
  },
  {
    "Postcode": 2117,
    "Locality": "TELOPEA",
    "State": "NSW",
    "Longitude": 151.04218,
    "Latitude": -33.797127
  },
  {
    "Postcode": 2118,
    "Locality": "CARLINGFORD",
    "State": "NSW",
    "Longitude": 151.043518,
    "Latitude": -33.775596
  },
  {
    "Postcode": 2118,
    "Locality": "CARLINGFORD COURT",
    "State": "NSW",
    "Longitude": 151.043518,
    "Latitude": -33.775596
  },
  {
    "Postcode": 2118,
    "Locality": "CARLINGFORD NORTH",
    "State": "NSW",
    "Longitude": 151.043518,
    "Latitude": -33.775596
  },
  {
    "Postcode": 2118,
    "Locality": "KINGSDENE",
    "State": "NSW",
    "Longitude": 151.043518,
    "Latitude": -33.775596
  },
  {
    "Postcode": 2119,
    "Locality": "BEECROFT",
    "State": "NSW",
    "Longitude": 151.064176,
    "Latitude": -33.755499
  },
  {
    "Postcode": 2119,
    "Locality": "CHELTENHAM",
    "State": "NSW",
    "Longitude": 151.064176,
    "Latitude": -33.755499
  },
  {
    "Postcode": 2120,
    "Locality": "PENNANT HILLS",
    "State": "NSW",
    "Longitude": 151.07359,
    "Latitude": -33.731105
  },
  {
    "Postcode": 2120,
    "Locality": "THORNLEIGH",
    "State": "NSW",
    "Longitude": 151.07359,
    "Latitude": -33.731105
  },
  {
    "Postcode": 2120,
    "Locality": "WESTLEIGH",
    "State": "NSW",
    "Longitude": 151.07359,
    "Latitude": -33.731105
  },
  {
    "Postcode": 2121,
    "Locality": "EPPING",
    "State": "NSW",
    "Longitude": 151.079919,
    "Latitude": -33.774145
  },
  {
    "Postcode": 2121,
    "Locality": "NORTH EPPING",
    "State": "NSW",
    "Longitude": 151.079919,
    "Latitude": -33.774145
  },
  {
    "Postcode": 2122,
    "Locality": "EASTWOOD",
    "State": "NSW",
    "Longitude": 151.092072,
    "Latitude": -33.791357
  },
  {
    "Postcode": 2122,
    "Locality": "MARSFIELD",
    "State": "NSW",
    "Longitude": 151.092072,
    "Latitude": -33.791357
  },
  {
    "Postcode": 2123,
    "Locality": "PARRAMATTA",
    "State": "NSW",
    "Longitude": 150.999575,
    "Latitude": -33.815446
  },
  {
    "Postcode": 2124,
    "Locality": "PARRAMATTA",
    "State": "NSW",
    "Longitude": 151.139472,
    "Latitude": -33.886166
  },
  {
    "Postcode": 2125,
    "Locality": "WEST PENNANT HILLS",
    "State": "NSW",
    "Longitude": 151.031807,
    "Latitude": -33.752645
  },
  {
    "Postcode": 2126,
    "Locality": "CHERRYBROOK",
    "State": "NSW",
    "Longitude": 151.043941,
    "Latitude": -33.724898
  },
  {
    "Postcode": 2127,
    "Locality": "HOMEBUSH BAY",
    "State": "NSW",
    "Longitude": 151.076186,
    "Latitude": -33.85283
  },
  {
    "Postcode": 2127,
    "Locality": "NEWINGTON",
    "State": "NSW",
    "Longitude": 151.076186,
    "Latitude": -33.85283
  },
  {
    "Postcode": 2127,
    "Locality": "SYDNEY OLYMPIC PARK",
    "State": "NSW",
    "Longitude": 151.0689007,
    "Latitude": -33.83966376
  },
  {
    "Postcode": 2127,
    "Locality": "WENTWORTH POINT",
    "State": "NSW",
    "Longitude": 151.0771675,
    "Latitude": -33.82764565
  },
  {
    "Postcode": 2128,
    "Locality": "SILVERWATER",
    "State": "NSW",
    "Longitude": 151.047591,
    "Latitude": -33.835928
  },
  {
    "Postcode": 2129,
    "Locality": "SYDNEY MARKETS",
    "State": "NSW",
    "Longitude": 151.069553,
    "Latitude": -33.864104
  },
  {
    "Postcode": 2130,
    "Locality": "SUMMER HILL",
    "State": "NSW",
    "Longitude": 151.135883,
    "Latitude": -33.892783
  },
  {
    "Postcode": 2131,
    "Locality": "ASHFIELD",
    "State": "NSW",
    "Longitude": 151.124008,
    "Latitude": -33.887602
  },
  {
    "Postcode": 2132,
    "Locality": "CROYDON",
    "State": "NSW",
    "Longitude": 151.113385,
    "Latitude": -33.882419
  },
  {
    "Postcode": 2133,
    "Locality": "CROYDON PARK",
    "State": "NSW",
    "Longitude": 151.102087,
    "Latitude": -33.898793
  },
  {
    "Postcode": 2133,
    "Locality": "ENFIELD SOUTH",
    "State": "NSW",
    "Longitude": 151.102087,
    "Latitude": -33.898793
  },
  {
    "Postcode": 2134,
    "Locality": "BURWOOD",
    "State": "NSW",
    "Longitude": 151.101757,
    "Latitude": -33.880049
  },
  {
    "Postcode": 2134,
    "Locality": "BURWOOD NORTH",
    "State": "NSW",
    "Longitude": 151.101757,
    "Latitude": -33.880049
  },
  {
    "Postcode": 2135,
    "Locality": "STRATHFIELD",
    "State": "NSW",
    "Longitude": 151.084759,
    "Latitude": -33.881009
  },
  {
    "Postcode": 2136,
    "Locality": "BURWOOD HEIGHTS",
    "State": "NSW",
    "Longitude": 151.087741,
    "Latitude": -33.892944
  },
  {
    "Postcode": 2136,
    "Locality": "ENFIELD",
    "State": "NSW",
    "Longitude": 151.087741,
    "Latitude": -33.892944
  },
  {
    "Postcode": 2136,
    "Locality": "STRATHFIELD SOUTH",
    "State": "NSW",
    "Longitude": 151.087741,
    "Latitude": -33.892944
  },
  {
    "Postcode": 2137,
    "Locality": "BREAKFAST POINT",
    "State": "NSW",
    "Longitude": 151.103751,
    "Latitude": -33.85749
  },
  {
    "Postcode": 2137,
    "Locality": "CABARITA",
    "State": "NSW",
    "Longitude": 151.103751,
    "Latitude": -33.85749
  },
  {
    "Postcode": 2137,
    "Locality": "CONCORD",
    "State": "NSW",
    "Longitude": 151.103751,
    "Latitude": -33.85749
  },
  {
    "Postcode": 2137,
    "Locality": "MORTLAKE",
    "State": "NSW",
    "Longitude": 151.103751,
    "Latitude": -33.85749
  },
  {
    "Postcode": 2137,
    "Locality": "NORTH STRATHFIELD",
    "State": "NSW",
    "Longitude": 151.103751,
    "Latitude": -33.85749
  },
  {
    "Postcode": 2138,
    "Locality": "CONCORD WEST",
    "State": "NSW",
    "Longitude": 151.086036,
    "Latitude": -33.846098
  },
  {
    "Postcode": 2138,
    "Locality": "CONCORD WEST DC",
    "State": "NSW",
    "Longitude": 0,
    "Latitude": 0
  },
  {
    "Postcode": 2138,
    "Locality": "LIBERTY GROVE",
    "State": "NSW",
    "Longitude": 151.086036,
    "Latitude": -33.846098
  },
  {
    "Postcode": 2138,
    "Locality": "RHODES",
    "State": "NSW",
    "Longitude": 151.086036,
    "Latitude": -33.846098
  },
  {
    "Postcode": 2139,
    "Locality": "CONCORD REPATRIATION HOSPITAL",
    "State": "NSW",
    "Longitude": 151.095163,
    "Latitude": -33.835993
  },
  {
    "Postcode": 2140,
    "Locality": "HOMEBUSH",
    "State": "NSW",
    "Longitude": 151.070853,
    "Latitude": -33.835018
  },
  {
    "Postcode": 2140,
    "Locality": "HOMEBUSH SOUTH",
    "State": "NSW",
    "Longitude": 151.070853,
    "Latitude": -33.835018
  },
  {
    "Postcode": 2140,
    "Locality": "HOMEBUSH WEST",
    "State": "NSW",
    "Longitude": 151.070853,
    "Latitude": -33.835018
  },
  {
    "Postcode": 2141,
    "Locality": "BERALA",
    "State": "NSW",
    "Longitude": 151.044768,
    "Latitude": -33.872483
  },
  {
    "Postcode": 2141,
    "Locality": "LIDCOMBE",
    "State": "NSW",
    "Longitude": 151.044768,
    "Latitude": -33.872483
  },
  {
    "Postcode": 2141,
    "Locality": "LIDCOMBE NORTH",
    "State": "NSW",
    "Longitude": 151.044768,
    "Latitude": -33.872483
  },
  {
    "Postcode": 2141,
    "Locality": "ROOKWOOD",
    "State": "NSW",
    "Longitude": 151.044768,
    "Latitude": -33.872483
  },
  {
    "Postcode": 2142,
    "Locality": "BLAXCELL",
    "State": "NSW",
    "Longitude": 151.015196,
    "Latitude": -33.832747
  },
  {
    "Postcode": 2142,
    "Locality": "CAMELLIA",
    "State": "NSW",
    "Longitude": 151.015196,
    "Latitude": -33.832747
  },
  {
    "Postcode": 2142,
    "Locality": "CLYDE",
    "State": "NSW",
    "Longitude": 151.0220764,
    "Latitude": -33.83307675
  },
  {
    "Postcode": 2142,
    "Locality": "GRANVILLE",
    "State": "NSW",
    "Longitude": 151.015196,
    "Latitude": -33.832747
  },
  {
    "Postcode": 2142,
    "Locality": "HOLROYD",
    "State": "NSW",
    "Longitude": 151.015196,
    "Latitude": -33.832747
  },
  {
    "Postcode": 2142,
    "Locality": "ROSEHILL",
    "State": "NSW",
    "Longitude": 151.015196,
    "Latitude": -33.832747
  },
  {
    "Postcode": 2142,
    "Locality": "SOUTH GRANVILLE",
    "State": "NSW",
    "Longitude": 151.0106782,
    "Latitude": -33.85780796
  },
  {
    "Postcode": 2143,
    "Locality": "BIRRONG",
    "State": "NSW",
    "Longitude": 151.021934,
    "Latitude": -33.885382
  },
  {
    "Postcode": 2143,
    "Locality": "POTTS HILL",
    "State": "NSW",
    "Longitude": 151.021934,
    "Latitude": -33.885382
  },
  {
    "Postcode": 2143,
    "Locality": "REGENTS PARK",
    "State": "NSW",
    "Longitude": 151.021934,
    "Latitude": -33.885382
  },
  {
    "Postcode": 2143,
    "Locality": "REGENTS PARK DC",
    "State": "NSW",
    "Longitude": 0,
    "Latitude": 0
  },
  {
    "Postcode": 2144,
    "Locality": "AUBURN",
    "State": "NSW",
    "Longitude": 151.026756,
    "Latitude": -33.851868
  },
  {
    "Postcode": 2144,
    "Locality": "AUBURN SOUTH",
    "State": "NSW",
    "Longitude": 151.026756,
    "Latitude": -33.851868
  },
  {
    "Postcode": 2145,
    "Locality": "CONSTITUTION HILL",
    "State": "NSW",
    "Longitude": 150.9751544,
    "Latitude": -33.79382308
  },
  {
    "Postcode": 2145,
    "Locality": "GIRRAWEEN",
    "State": "NSW",
    "Longitude": 150.957425,
    "Latitude": -33.813104
  },
  {
    "Postcode": 2145,
    "Locality": "GREYSTANES",
    "State": "NSW",
    "Longitude": 150.957425,
    "Latitude": -33.813104
  },
  {
    "Postcode": 2145,
    "Locality": "MAYS HILL",
    "State": "NSW",
    "Longitude": 150.957425,
    "Latitude": -33.813104
  },
  {
    "Postcode": 2145,
    "Locality": "PEMULWUY",
    "State": "NSW",
    "Longitude": 150.957425,
    "Latitude": -33.813104
  },
  {
    "Postcode": 2145,
    "Locality": "PENDLE HILL",
    "State": "NSW",
    "Longitude": 150.957425,
    "Latitude": -33.813104
  },
  {
    "Postcode": 2145,
    "Locality": "SOUTH WENTWORTHVILLE",
    "State": "NSW",
    "Longitude": 150.957425,
    "Latitude": -33.813104
  },
  {
    "Postcode": 2145,
    "Locality": "WENTWORTHVILLE",
    "State": "NSW",
    "Longitude": 150.957425,
    "Latitude": -33.813104
  },
  {
    "Postcode": 2145,
    "Locality": "WESTMEAD",
    "State": "NSW",
    "Longitude": 150.957425,
    "Latitude": -33.813104
  },
  {
    "Postcode": 2146,
    "Locality": "OLD TOONGABBIE",
    "State": "NSW",
    "Longitude": 150.959508,
    "Latitude": -33.789374
  },
  {
    "Postcode": 2146,
    "Locality": "TOONGABBIE",
    "State": "NSW",
    "Longitude": 150.959508,
    "Latitude": -33.789374
  },
  {
    "Postcode": 2146,
    "Locality": "TOONGABBIE EAST",
    "State": "NSW",
    "Longitude": 150.959508,
    "Latitude": -33.789374
  },
  {
    "Postcode": 2147,
    "Locality": "KINGS LANGLEY",
    "State": "NSW",
    "Longitude": 150.935836,
    "Latitude": -33.766075
  },
  {
    "Postcode": 2147,
    "Locality": "LALOR PARK",
    "State": "NSW",
    "Longitude": 150.935836,
    "Latitude": -33.766075
  },
  {
    "Postcode": 2147,
    "Locality": "SEVEN HILLS",
    "State": "NSW",
    "Longitude": 150.935836,
    "Latitude": -33.766075
  },
  {
    "Postcode": 2147,
    "Locality": "SEVEN HILLS WEST",
    "State": "NSW",
    "Longitude": 150.935836,
    "Latitude": -33.766075
  },
  {
    "Postcode": 2148,
    "Locality": "ARNDELL PARK",
    "State": "NSW",
    "Longitude": 150.900547,
    "Latitude": -33.783751
  },
  {
    "Postcode": 2148,
    "Locality": "BLACKTOWN",
    "State": "NSW",
    "Longitude": 150.900547,
    "Latitude": -33.783751
  },
  {
    "Postcode": 2148,
    "Locality": "BLACKTOWN WESTPOINT",
    "State": "NSW",
    "Longitude": 150.900547,
    "Latitude": -33.783751
  },
  {
    "Postcode": 2148,
    "Locality": "HUNTINGWOOD",
    "State": "NSW",
    "Longitude": 150.900547,
    "Latitude": -33.783751
  },
  {
    "Postcode": 2148,
    "Locality": "KINGS PARK",
    "State": "NSW",
    "Longitude": 150.900547,
    "Latitude": -33.783751
  },
  {
    "Postcode": 2148,
    "Locality": "MARAYONG",
    "State": "NSW",
    "Longitude": 150.900547,
    "Latitude": -33.783751
  },
  {
    "Postcode": 2148,
    "Locality": "PROSPECT",
    "State": "NSW",
    "Longitude": 150.900547,
    "Latitude": -33.783751
  },
  {
    "Postcode": 2150,
    "Locality": "HARRIS PARK",
    "State": "NSW",
    "Longitude": 151.006506,
    "Latitude": -33.814463
  },
  {
    "Postcode": 2150,
    "Locality": "PARRAMATTA",
    "State": "NSW",
    "Longitude": 151.006506,
    "Latitude": -33.814463
  },
  {
    "Postcode": 2150,
    "Locality": "PARRAMATTA WESTFIELD",
    "State": "NSW",
    "Longitude": 151.006506,
    "Latitude": -33.814463
  },
  {
    "Postcode": 2151,
    "Locality": "NORTH PARRAMATTA",
    "State": "NSW",
    "Longitude": 151.012511,
    "Latitude": -33.78709
  },
  {
    "Postcode": 2151,
    "Locality": "NORTH ROCKS",
    "State": "NSW",
    "Longitude": 151.012511,
    "Latitude": -33.78709
  },
  {
    "Postcode": 2152,
    "Locality": "NORTHMEAD",
    "State": "NSW",
    "Longitude": 150.996388,
    "Latitude": -33.782501
  },
  {
    "Postcode": 2153,
    "Locality": "BAULKHAM HILLS",
    "State": "NSW",
    "Longitude": 150.955942,
    "Latitude": -33.731651
  },
  {
    "Postcode": 2153,
    "Locality": "BELLA VISTA",
    "State": "NSW",
    "Longitude": 150.955942,
    "Latitude": -33.731651
  },
  {
    "Postcode": 2153,
    "Locality": "CRESTWOOD",
    "State": "NSW",
    "Longitude": 150.955942,
    "Latitude": -33.731651
  },
  {
    "Postcode": 2153,
    "Locality": "WINSTON HILLS",
    "State": "NSW",
    "Longitude": 150.955942,
    "Latitude": -33.731651
  },
  {
    "Postcode": 2154,
    "Locality": "CASTLE HILL",
    "State": "NSW",
    "Longitude": 151.000948,
    "Latitude": -33.73238
  },
  {
    "Postcode": 2155,
    "Locality": "BEAUMONT HILLS",
    "State": "NSW",
    "Longitude": 150.931074,
    "Latitude": -33.731523
  },
  {
    "Postcode": 2155,
    "Locality": "KELLYVILLE",
    "State": "NSW",
    "Longitude": 150.931074,
    "Latitude": -33.731523
  },
  {
    "Postcode": 2155,
    "Locality": "KELLYVILLE RIDGE",
    "State": "NSW",
    "Longitude": 150.931074,
    "Latitude": -33.731523
  },
  {
    "Postcode": 2155,
    "Locality": "NORTH KELLYVILLE",
    "State": "NSW",
    "Longitude": 0,
    "Latitude": 0
  },
  {
    "Postcode": 2155,
    "Locality": "ROUSE HILL",
    "State": "NSW",
    "Longitude": 150.931074,
    "Latitude": -33.731523
  },
  {
    "Postcode": 2156,
    "Locality": "ANNANGROVE",
    "State": "NSW",
    "Longitude": 150.974528,
    "Latitude": -33.656984
  },
  {
    "Postcode": 2156,
    "Locality": "GLENHAVEN",
    "State": "NSW",
    "Longitude": 150.974528,
    "Latitude": -33.656984
  },
  {
    "Postcode": 2156,
    "Locality": "KENTHURST",
    "State": "NSW",
    "Longitude": 150.974528,
    "Latitude": -33.656984
  },
  {
    "Postcode": 2157,
    "Locality": "CANOELANDS",
    "State": "NSW",
    "Longitude": 150.991055,
    "Latitude": -33.602167
  },
  {
    "Postcode": 2157,
    "Locality": "FOREST GLEN",
    "State": "NSW",
    "Longitude": 150.991055,
    "Latitude": -33.602167
  },
  {
    "Postcode": 2157,
    "Locality": "GLENORIE",
    "State": "NSW",
    "Longitude": 150.991055,
    "Latitude": -33.602167
  },
  {
    "Postcode": 2157,
    "Locality": "HILLSIDE",
    "State": "NSW",
    "Longitude": 150.991055,
    "Latitude": -33.602167
  },
  {
    "Postcode": 2158,
    "Locality": "DURAL",
    "State": "NSW",
    "Longitude": 151.040358,
    "Latitude": -33.690331
  },
  {
    "Postcode": 2158,
    "Locality": "DURAL DC",
    "State": "NSW",
    "Longitude": 0,
    "Latitude": 0
  },
  {
    "Postcode": 2158,
    "Locality": "MIDDLE DURAL",
    "State": "NSW",
    "Longitude": 151.040358,
    "Latitude": -33.690331
  },
  {
    "Postcode": 2158,
    "Locality": "ROUND CORNER",
    "State": "NSW",
    "Longitude": 151.040358,
    "Latitude": -33.690331
  },
  {
    "Postcode": 2159,
    "Locality": "ARCADIA",
    "State": "NSW",
    "Longitude": 151.084146,
    "Latitude": -33.539148
  },
  {
    "Postcode": 2159,
    "Locality": "BERRILEE",
    "State": "NSW",
    "Longitude": 151.084146,
    "Latitude": -33.539148
  },
  {
    "Postcode": 2159,
    "Locality": "FIDDLETOWN",
    "State": "NSW",
    "Longitude": 151.084146,
    "Latitude": -33.539148
  },
  {
    "Postcode": 2159,
    "Locality": "GALSTON",
    "State": "NSW",
    "Longitude": 151.084146,
    "Latitude": -33.539148
  },
  {
    "Postcode": 2160,
    "Locality": "MERRYLANDS",
    "State": "NSW",
    "Longitude": 150.976594,
    "Latitude": -33.835883
  },
  {
    "Postcode": 2160,
    "Locality": "MERRYLANDS WEST",
    "State": "NSW",
    "Longitude": 150.976594,
    "Latitude": -33.835883
  },
  {
    "Postcode": 2161,
    "Locality": "GUILDFORD",
    "State": "NSW",
    "Longitude": 150.983724,
    "Latitude": -33.858335
  },
  {
    "Postcode": 2161,
    "Locality": "GUILDFORD WEST",
    "State": "NSW",
    "Longitude": 150.983724,
    "Latitude": -33.858335
  },
  {
    "Postcode": 2161,
    "Locality": "OLD GUILDFORD",
    "State": "NSW",
    "Longitude": 150.983724,
    "Latitude": -33.858335
  },
  {
    "Postcode": 2161,
    "Locality": "YENNORA",
    "State": "NSW",
    "Longitude": 150.983724,
    "Latitude": -33.858335
  },
  {
    "Postcode": 2162,
    "Locality": "CHESTER HILL",
    "State": "NSW",
    "Longitude": 151.004128,
    "Latitude": -33.88349
  },
  {
    "Postcode": 2162,
    "Locality": "SEFTON",
    "State": "NSW",
    "Longitude": 151.004128,
    "Latitude": -33.88349
  },
  {
    "Postcode": 2163,
    "Locality": "CARRAMAR",
    "State": "NSW",
    "Longitude": 150.979458,
    "Latitude": -33.887203
  },
  {
    "Postcode": 2163,
    "Locality": "LANSDOWNE",
    "State": "NSW",
    "Longitude": 150.979458,
    "Latitude": -33.887203
  },
  {
    "Postcode": 2163,
    "Locality": "VILLAWOOD",
    "State": "NSW",
    "Longitude": 150.979458,
    "Latitude": -33.887203
  },
  {
    "Postcode": 2164,
    "Locality": "SMITHFIELD",
    "State": "NSW",
    "Longitude": 150.875028,
    "Latitude": -33.844153
  },
  {
    "Postcode": 2164,
    "Locality": "SMITHFIELD WEST",
    "State": "NSW",
    "Longitude": 150.875028,
    "Latitude": -33.844153
  },
  {
    "Postcode": 2164,
    "Locality": "WETHERILL PARK",
    "State": "NSW",
    "Longitude": 150.875028,
    "Latitude": -33.844153
  },
  {
    "Postcode": 2164,
    "Locality": "WETHERILL PARK BC",
    "State": "NSW",
    "Longitude": 0,
    "Latitude": 0
  },
  {
    "Postcode": 2164,
    "Locality": "WOODPARK",
    "State": "NSW",
    "Longitude": 150.875028,
    "Latitude": -33.844153
  },
  {
    "Postcode": 2165,
    "Locality": "FAIRFIELD",
    "State": "NSW",
    "Longitude": 150.947496,
    "Latitude": -33.872435
  },
  {
    "Postcode": 2165,
    "Locality": "FAIRFIELD EAST",
    "State": "NSW",
    "Longitude": 150.947496,
    "Latitude": -33.872435
  },
  {
    "Postcode": 2165,
    "Locality": "FAIRFIELD HEIGHTS",
    "State": "NSW",
    "Longitude": 150.947496,
    "Latitude": -33.872435
  },
  {
    "Postcode": 2165,
    "Locality": "FAIRFIELD WEST",
    "State": "NSW",
    "Longitude": 150.947496,
    "Latitude": -33.872435
  },